{
"type": "FeatureCollection",
"name": "montreal-panierbleu",
"crs": { "type": "name", "properties": { "name": "urn:ogc:def:crs:OGC:1.3:CRS84" } },
"features": [
{ "type": "Feature", "properties": { "id": 54, "name": "Pascal le Boucher", "address": "8113 Rue Saint-Denis, Montréal", "city": "Montréal", "description": "Découvrez notre boucherie de quartier (dans Villeray, à Montréal) et nos saveurs\nPROVENANT DIRECTEMENT DE PETITES FERMES FAMILIALES DU QUÉBEC", "facebook_url": "https:\/\/www.facebook.com\/www.pascalleboucher\/", "twitter_url": null, "instagram_url": "https:\/\/instagram.com\/pascal-le-boucher", "website": "http:\/\/www.pascalleboucher.com\/", "hours": "Heures d'ouverture habituelles", "pickup": "checked", "phone": "(438) 387-6030", "where": "Physique", "Latitude": 45.543026, "Longitude": -73.6307115, "ecommerce": null, "details": "Cuillette sur place (pour emporter)", "type": "Magasins & Boutiques" }, "geometry": { "type": "Point", "coordinates": [ -73.6307115, 45.543026 ] } },
{ "type": "Feature", "properties": { "id": 70, "name": "C'est Beau", "address": "1556 Avenue du Mont-Royal Est, Montréal", "city": "Montréal", "description": null, "facebook_url": "https:\/\/www.facebook.com\/cestbeau.co\/", "twitter_url": null, "instagram_url": "https:\/\/instagram.com\/cestbeau.co", "website": "http:\/\/www.cestbeau.co\/", "hours": "Temporairement fermé", "pickup": null, "phone": "(514) 357-8383", "where": "Physique et ecommerce", "Latitude": 45.531805, "Longitude": -73.5756427, "ecommerce": "Opérationnel", "details": "Livraison 2 à 3 jours", "type": "Magasins & Boutiques" }, "geometry": { "type": "Point", "coordinates": [ -73.5756427, 45.531805 ] } },
{ "type": "Feature", "properties": { "id": 72, "name": "Les Trappeuses \/ Les Mauvaises Herbes", "address": "6260 Rue Saint-Hubert, Montréal", "city": "Montréal", "description": "Les Mauvaises Herbes est la boutique en ligne des Trappeuses. Notre mission? Démocratiser le mode de vie écoresponsable et la fabrication de cosmétiques et produits nettoyants maison, dans une démarche minimaliste et de réduction des déchets.", "facebook_url": "https:\/\/www.facebook.com\/lestrappeuses\/", "twitter_url": null, "instagram_url": "https:\/\/instagram.com\/mauvaises_herbes_mtl", "website": "http:\/\/www.les-mauvaisesherbes.com\/", "hours": "Temporairement fermé", "pickup": null, "phone": "(514) 386-2433", "where": "Physique et ecommerce", "Latitude": 45.5354772, "Longitude": -73.6016567, "ecommerce": "Opérationnel", "details": "Livraison 3 à 10 jours", "type": "Magasins & Boutiques" }, "geometry": { "type": "Point", "coordinates": [ -73.6016567, 45.5354772 ] } },
{ "type": "Feature", "properties": { "id": 73, "name": "Boutique Cheers", "address": "2035 Rue Wellington, Montréal", "city": "Montréal", "description": "La première boutique de bières en ligne au Québec.  Situés à Pointe-Saint-Charles, nous livrons localement dans l’arrondissement ainsi que les arrondissements contigus.", "facebook_url": "https:\/\/www.facebook.com\/boutiquecheers\/", "twitter_url": null, "instagram_url": "https:\/\/instagram.com\/cheersbieresboutique", "website": "http:\/\/www.boutiquecheers.com\/", "hours": "Heures d'ouverture habituelles", "pickup": null, "phone": "(514) 316-6982", "where": "Physique et ecommerce", "Latitude": 45.4780843, "Longitude": -73.559049, "ecommerce": "Opérationnel", "details": "Livraison locale 2h", "type": "Bières & Vins" }, "geometry": { "type": "Point", "coordinates": [ -73.559049, 45.4780843 ] } },
{ "type": "Feature", "properties": { "id": 393, "name": "Alambika", "address": "6484 Boulevard Saint-Laurent, Montréal", "city": "Montréal", "description": null, "facebook_url": "https:\/\/www.facebook.com\/alambika\/", "twitter_url": "https:\/\/twitter.com\/alambika", "instagram_url": "https:\/\/www.instagram.com\/alambika\/", "website": "https:\/\/alambika.ca\/", "hours": "Temporairement fermé", "pickup": null, "phone": "(514) 400-9212", "where": "Physique et ecommerce", "Latitude": 45.5300897, "Longitude": -73.6082192, "ecommerce": "Opérationnel", "details": null, "type": "Magasins & Boutiques" }, "geometry": { "type": "Point", "coordinates": [ -73.6082192, 45.5300897 ] } },
{ "type": "Feature", "properties": { "id": 395, "name": "Librairie Argo", "address": "1915 Rue Sainte-Catherine Ouest, Montréal", "city": "Montréal", "description": null, "facebook_url": "http:\/\/www.facebook.com\/argobookshop", "twitter_url": "http:\/\/twitter.com\/ArgoBookshop", "instagram_url": null, "website": "http:\/\/www.argobookshop.ca\/", "hours": "Heures d'ouverture réduites", "pickup": null, "phone": "(514) 931-3442", "where": "Physique et ecommerce", "Latitude": 45.4923443, "Longitude": -73.5810036, "ecommerce": "Opérationnel", "details": null, "type": "Librairie" }, "geometry": { "type": "Point", "coordinates": [ -73.5810036, 45.4923443 ] } },
{ "type": "Feature", "properties": { "id": 397, "name": "Artpop Montréal", "address": "129 Avenue du Mont-Royal Est, Montréal", "city": "Montréal", "description": null, "facebook_url": "https:\/\/www.facebook.com\/artpopmontrealboutique\/", "twitter_url": null, "instagram_url": null, "website": "http:\/\/facebook.com\/artpopmontrealboutique\/", "hours": "Temporairement fermé", "pickup": null, "phone": "(514) 843-3443", "where": "Physique", "Latitude": 45.5215149, "Longitude": -73.5851134, "ecommerce": null, "details": "Accuse du retard dans les délais de livraison", "type": "Magasins & Boutiques" }, "geometry": { "type": "Point", "coordinates": [ -73.5851134, 45.5215149 ] } },
{ "type": "Feature", "properties": { "id": 403, "name": "Allons Vert", "address": "319 Rue de la Montagne, Montréal", "city": "Montréal", "description": null, "facebook_url": "https:\/\/www.facebook.com\/allonsVERT", "twitter_url": "https:\/\/twitter.com\/allonsvert", "instagram_url": null, "website": "http:\/\/www.allonsvert.ca\/", "hours": "Heures d'ouverture habituelles", "pickup": null, "phone": "(514) 507-4445", "where": "Physique", "Latitude": 45.4921636, "Longitude": -73.5620491, "ecommerce": null, "details": "Livraison 24h à 48h", "type": "Magasins & Boutiques" }, "geometry": { "type": "Point", "coordinates": [ -73.5620491, 45.4921636 ] } },
{ "type": "Feature", "properties": { "id": 407, "name": "Boulangerie Baked2Go Gluten Free", "address": "4255 Boulevard Saint-Laurent, Montréal", "city": "Montréal", "description": null, "facebook_url": "https:\/\/www.facebook.com\/advancedbakery", "twitter_url": null, "instagram_url": "https:\/\/www.instagram.com\/baked2gomtl\/", "website": "http:\/\/www.baked2go.com\/", "hours": "Temporairement fermé", "pickup": null, "phone": "(514) 844-3232", "where": "Physique et ecommerce", "Latitude": 45.5188941, "Longitude": -73.5836558, "ecommerce": "Opérationnel", "details": "Livraison 2 à 3 jours", "type": "Boulangerie & pâtisserie" }, "geometry": { "type": "Point", "coordinates": [ -73.5836558, 45.5188941 ] } },
{ "type": "Feature", "properties": { "id": 409, "name": "Automne Boulangerie", "address": "6500 Avenue Christophe-Colomb, Montreal", "city": "Montreal", "description": "Tout commence en 2014 alors que Julien parle de son projet à Seth en lui demandant conseils sur le côté restauration de sa future boulangerie. Plusieurs rencontres plus tard Julien et Seth réalisent qu'ils ont des visions similaires sur le futur de la boulangerie au québec et réalise qu'en combinant leurs connaissances ils pourraient probablement changer un petit peu le cadre de boulangerie au québec. Ils se disent qu'une boulangerie au québec devrait essayer de faire affaire avec le plus d'agriculteurs, cultivateurs et commerçant de la province pour une multitude de raisons. Pour cela il faut faire des produits qui varient selon les saisons...", "facebook_url": "https:\/\/www.facebook.com\/automneboulangerie\/", "twitter_url": null, "instagram_url": "https:\/\/www.instagram.com\/automneboulangerie\/", "website": "https:\/\/www.automneboulangerie.com\/", "hours": "Heures d'ouverture réduites", "pickup": "checked", "phone": "(514) 274-8111", "where": "Physique et ecommerce", "Latitude": 45.538638, "Longitude": -73.6034118, "ecommerce": "Opérationnel", "details": "Cuillette sur place (pour emporter),Livraison 3 à 10 jours,Livraison 2 à 3 jours", "type": "Boulangerie & pâtisserie" }, "geometry": { "type": "Point", "coordinates": [ -73.6034118, 45.538638 ] } },
{ "type": "Feature", "properties": { "id": 419, "name": "Atelier By the North", "address": "6502 24e avenue, Montréal", "city": "Montréal", "description": null, "facebook_url": null, "twitter_url": null, "instagram_url": "https:\/\/www.instagram.com\/bythenorth\/", "website": "http:\/\/www.bythenorth.com\/about", "hours": "Temporairement fermé", "pickup": null, "phone": "+1 514 999 5177", "where": "Physique", "Latitude": 45.5638057, "Longitude": -73.5786869, "ecommerce": null, "details": null, "type": "Magasins & Boutiques" }, "geometry": { "type": "Point", "coordinates": [ -73.5786869, 45.5638057 ] } },
{ "type": "Feature", "properties": { "id": 420, "name": "Atelier Murri", "address": "68 Rue Rachel Est, Montréal", "city": "Montréal", "description": null, "facebook_url": "https:\/\/www.facebook.com\/ateliermurri\/", "twitter_url": null, "instagram_url": "https:\/\/www.instagram.com\/ateliermurri\/", "website": "http:\/\/www.ateliermurri.com\/", "hours": "Temporairement fermé", "pickup": null, "phone": "(438) 233-1240", "where": "Physique et ecommerce", "Latitude": 45.5186896, "Longitude": -73.5811003, "ecommerce": "Opérationnel", "details": null, "type": "Magasins & Boutiques" }, "geometry": { "type": "Point", "coordinates": [ -73.5811003, 45.518689599999988 ] } },
{ "type": "Feature", "properties": { "id": 421, "name": "Aux 33 Tours", "address": "1373 Avenue du Mont-Royal Est, Montréal", "city": "Montréal", "description": null, "facebook_url": "https:\/\/www.facebook.com\/aux33tours", "twitter_url": null, "instagram_url": "https:\/\/instagram.com\/aux33tours", "website": "http:\/\/www.aux33tours.com\/", "hours": "Temporairement fermé", "pickup": null, "phone": "(514) 524-7397", "where": "Physique et ecommerce", "Latitude": 45.5306368, "Longitude": -73.5767562, "ecommerce": "Opérationnel", "details": null, "type": "Magasins & Boutiques" }, "geometry": { "type": "Point", "coordinates": [ -73.5767562, 45.5306368 ] } },
{ "type": "Feature", "properties": { "id": 422, "name": "Baltic Club", "address": "5752 Boulevard Saint-Laurent, Montréal", "city": "Montréal", "description": null, "facebook_url": "http:\/\/facebook.com\/thebalticclub\/", "twitter_url": null, "instagram_url": "https:\/\/www.instagram.com\/thebalticclub\/", "website": "http:\/\/www.thebalticclub.com\/", "hours": "Temporairement fermé", "pickup": null, "phone": "(514) 550-2167", "where": "Physique et ecommerce", "Latitude": 45.526086, "Longitude": -73.5994562, "ecommerce": "Opérationnel", "details": null, "type": "Magasins & Boutiques" }, "geometry": { "type": "Point", "coordinates": [ -73.5994562, 45.526086 ] } },
{ "type": "Feature", "properties": { "id": 424, "name": "Belle et Rebelle", "address": "6583A Rue Saint-Hubert, Montréal", "city": "Montréal", "description": null, "facebook_url": "https:\/\/www.facebook.com\/belle.et.rebelle", "twitter_url": null, "instagram_url": "https:\/\/www.instagram.com\/belleetrebelle_mtl\/", "website": "https:\/\/belleetrebelle.ca\/", "hours": "Temporairement fermé", "pickup": null, "phone": "(514) 315-4903", "where": "Physique et ecommerce", "Latitude": 45.5368689, "Longitude": -73.6047212, "ecommerce": "Opérationnel", "details": null, "type": "Magasins & Boutiques" }, "geometry": { "type": "Point", "coordinates": [ -73.6047212, 45.536868899999988 ] } },
{ "type": "Feature", "properties": { "id": 425, "name": "Boutique Marmier Betina Lou", "address": "6510 Avenue Henri-Julien, Montréal", "city": "Montréal", "description": null, "facebook_url": "https:\/\/www.facebook.com\/betinaloudesign", "twitter_url": null, "instagram_url": "https:\/\/www.instagram.com\/betinalou\/", "website": "http:\/\/betinalou.com\/", "hours": "Temporairement fermé", "pickup": null, "phone": "(514) 274-6103", "where": "Physique et ecommerce", "Latitude": 45.5336562, "Longitude": -73.6078897, "ecommerce": "Opérationnel", "details": null, "type": "Magasins & Boutiques" }, "geometry": { "type": "Point", "coordinates": [ -73.6078897, 45.5336562 ] } },
{ "type": "Feature", "properties": { "id": 428, "name": "Bicycles Quilicot Montréal", "address": "3200 Rue Masson, Montréal", "city": "Montréal", "description": null, "facebook_url": "https:\/\/www.facebook.com\/bicyclesquilicot\/", "twitter_url": null, "instagram_url": "https:\/\/www.instagram.com\/bicycles_quilicot\/", "website": "https:\/\/www.bicyclesquilicot.com\/", "hours": "Temporairement fermé", "pickup": null, "phone": "(514) 842-1121", "where": "Physique et ecommerce", "Latitude": 45.5503057, "Longitude": -73.5735739, "ecommerce": "Opérationnel", "details": null, "type": "Magasins & Boutiques" }, "geometry": { "type": "Point", "coordinates": [ -73.5735739, 45.5503057 ] } },
{ "type": "Feature", "properties": { "id": 430, "name": "Billie le kid", "address": "1001 Avenue Laurier Ouest, Montréal", "city": "Montréal", "description": null, "facebook_url": "https:\/\/www.facebook.com\/boutiquebillielekid\/", "twitter_url": null, "instagram_url": "https:\/\/www.instagram.com\/billie_le_kid\/", "website": "https:\/\/www.billielekid.com\/", "hours": "Temporairement fermé", "pickup": null, "phone": "(514) 903-1350", "where": "Physique et ecommerce", "Latitude": 45.518712, "Longitude": -73.5966563, "ecommerce": "Opérationnel", "details": null, "type": "Magasins & Boutiques" }, "geometry": { "type": "Point", "coordinates": [ -73.5966563, 45.518712 ] } },
{ "type": "Feature", "properties": { "id": 438, "name": "BODYBAG by jude", "address": "17 Rue Bernard Ouest, Montréal", "city": "Montréal", "description": null, "facebook_url": "https:\/\/www.facebook.com\/BODYBAGbyjude\/", "twitter_url": "https:\/\/twitter.com\/BODYBAGbyJude", "instagram_url": "https:\/\/www.instagram.com\/bodybagbyjude\/?hl=fr", "website": "http:\/\/www.bodybagbyjude.com\/", "hours": "Temporairement fermé", "pickup": null, "phone": "(514) 274-5242", "where": "Physique et ecommerce", "Latitude": 45.526766, "Longitude": -73.6027059, "ecommerce": "Opérationnel", "details": null, "type": "Magasins & Boutiques" }, "geometry": { "type": "Point", "coordinates": [ -73.6027059, 45.526766 ] } },
{ "type": "Feature", "properties": { "id": 440, "name": "Bouquet", "address": "Rue de Louvain Ouest, Montréal", "city": "Montréal", "description": null, "facebook_url": "https:\/\/www.facebook.com\/bouquetmtl\/", "twitter_url": null, "instagram_url": "https:\/\/www.instagram.com\/bouquetmtl\/", "website": "https:\/\/www.bouquetmtl.com\/", "hours": "Temporairement fermé", "pickup": null, "phone": null, "where": "Physique et ecommerce", "Latitude": 45.540451, "Longitude": -73.6577232, "ecommerce": "Opérationnel", "details": null, "type": "Magasins & Boutiques" }, "geometry": { "type": "Point", "coordinates": [ -73.6577232, 45.540451 ] } },
{ "type": "Feature", "properties": { "id": 442, "name": "Boutique Lustre", "address": "4068 Boulevard Saint-Laurent, Montréal", "city": "Montréal", "description": null, "facebook_url": "https:\/\/www.facebook.com\/boutiquelustre", "twitter_url": null, "instagram_url": "https:\/\/instagram.com\/boutiquelustre", "website": "https:\/\/boutiquelustre.com\/", "hours": "Heures d'ouverture réduites", "pickup": null, "phone": "(514) 288-7661", "where": "Physique et ecommerce", "Latitude": 45.5175114, "Longitude": -73.5806131, "ecommerce": "Opérationnel", "details": null, "type": "Magasins & Boutiques" }, "geometry": { "type": "Point", "coordinates": [ -73.5806131, 45.5175114 ] } },
{ "type": "Feature", "properties": { "id": 443, "name": "Boutique Bubbles", "address": "151 Avenue du Mont-Royal Est, Montréal", "city": "Montréal", "description": null, "facebook_url": "https:\/\/fr-ca.facebook.com\/BoutiqueBubbles.Montreal\/", "twitter_url": null, "instagram_url": "https:\/\/www.instagram.com\/boutiquebubbles\/", "website": "https:\/\/www.boutiquebubbles.com\/", "hours": "Temporairement fermé", "pickup": null, "phone": "(514) 284-1022", "where": "Physique et ecommerce", "Latitude": 45.5219507, "Longitude": -73.584705, "ecommerce": "Opérationnel", "details": null, "type": "Magasins & Boutiques" }, "geometry": { "type": "Point", "coordinates": [ -73.584705, 45.5219507 ] } },
{ "type": "Feature", "properties": { "id": 444, "name": "Boutique Café MRKT", "address": "838 Avenue du Mont-Royal Est, Montréal", "city": "Montréal", "description": null, "facebook_url": "https:\/\/www.facebook.com\/cafemrkt\/", "twitter_url": null, "instagram_url": "http:\/\/instagram.com\/cafemrkt", "website": "https:\/\/www.cafemrkt.com\/", "hours": "Temporairement fermé", "pickup": null, "phone": "(514) 248-7375", "where": "Physique et ecommerce", "Latitude": 45.5260287, "Longitude": -73.5810751, "ecommerce": "Opérationnel", "details": "Livraison 2 à 3 jours", "type": "Magasins & Boutiques" }, "geometry": { "type": "Point", "coordinates": [ -73.5810751, 45.5260287 ] } },
{ "type": "Feature", "properties": { "id": 446, "name": "jbloom", "address": "1180 Rue Sainte-Catherine Ouest, Montréal", "city": "Montréal", "description": null, "facebook_url": "https:\/\/www.facebook.com\/jbloomshoes", "twitter_url": null, "instagram_url": null, "website": "http:\/\/jbloomshoes.com\/", "hours": "Temporairement fermé", "pickup": null, "phone": "(514) 395-5333", "where": "Physique et ecommerce", "Latitude": 45.4986445, "Longitude": -73.5742888, "ecommerce": "Opérationnel", "details": null, "type": "Magasins & Boutiques" }, "geometry": { "type": "Point", "coordinates": [ -73.5742888, 45.4986445 ] } },
{ "type": "Feature", "properties": { "id": 447, "name": "Cokluch", "address": "410A Rue Villeray, Montréal", "city": "Montréal", "description": null, "facebook_url": "https:\/\/www.facebook.com\/cokluch\/", "twitter_url": null, "instagram_url": null, "website": "http:\/\/www.cokluch.com\/", "hours": "Temporairement fermé", "pickup": null, "phone": "(514) 273-5700", "where": "Physique et ecommerce", "Latitude": 45.5410218, "Longitude": -73.6228628, "ecommerce": "Opérationnel", "details": null, "type": "Magasins & Boutiques" }, "geometry": { "type": "Point", "coordinates": [ -73.6228628, 45.5410218 ] } },
{ "type": "Feature", "properties": { "id": 449, "name": "Manteaux Desloups", "address": "3694 Rue Saint-Denis, Montréal", "city": "Montréal", "description": null, "facebook_url": "https:\/\/facebook.com\/", "twitter_url": null, "instagram_url": "https:\/\/instagram.com\/", "website": "http:\/\/www.desloups.ca\/", "hours": "Temporairement fermé", "pickup": null, "phone": "(514) 527-0925", "where": "Physique et ecommerce", "Latitude": 45.518525, "Longitude": -73.5709195, "ecommerce": "Opérationnel", "details": null, "type": "Magasins & Boutiques" }, "geometry": { "type": "Point", "coordinates": [ -73.5709195, 45.518525 ] } },
{ "type": "Feature", "properties": { "id": 450, "name": "Deuxième Édition", "address": "262 Rue Beaubien Est, Montréal", "city": "Montréal", "description": null, "facebook_url": "https:\/\/www.facebook.com\/boutiquedeuxiemeedition\/", "twitter_url": null, "instagram_url": "https:\/\/www.instagram.com\/deuxieme_edition\/?_ga=2.190723563.1970324074.1585628465-1880006487.1585628465", "website": "http:\/\/www.deuxiemeedition.com\/", "hours": "Temporairement fermé", "pickup": null, "phone": "(514) 543-3535", "where": "Physique et ecommerce", "Latitude": 45.5325388, "Longitude": -73.6063363, "ecommerce": "Opérationnel", "details": null, "type": "Magasins & Boutiques" }, "geometry": { "type": "Point", "coordinates": [ -73.6063363, 45.5325388 ] } },
{ "type": "Feature", "properties": { "id": 451, "name": "Diabolik", "address": "254 Avenue du Mont-Royal Est, Montréal", "city": "Montréal", "description": null, "facebook_url": "https:\/\/www.facebook.com\/Boutique-Diabolik-157668127587416", "twitter_url": null, "instagram_url": "https:\/\/www.instagram.com\/boutiquediabolik\/", "website": "https:\/\/www.diabolik.net\/", "hours": "Temporairement fermé", "pickup": null, "phone": "(514) 849-1049", "where": "Physique et ecommerce", "Latitude": 45.5227804, "Longitude": -73.5839463, "ecommerce": "Opérationnel", "details": null, "type": "Magasins & Boutiques" }, "geometry": { "type": "Point", "coordinates": [ -73.5839463, 45.522780399999988 ] } },
{ "type": "Feature", "properties": { "id": 453, "name": "ÉTAT de STYLE", "address": "351 Avenue Duluth Est, Montréal", "city": "Montréal", "description": null, "facebook_url": "https:\/\/www.facebook.com\/etatdestyle\/", "twitter_url": null, "instagram_url": "https:\/\/www.instagram.com\/etatdestyle", "website": "http:\/\/www.etatdestyle.com\/", "hours": "Temporairement fermé", "pickup": null, "phone": "(514) 566-2956", "where": "Physique et ecommerce", "Latitude": 45.5201853, "Longitude": -73.5764239, "ecommerce": "Opérationnel", "details": null, "type": "Magasins & Boutiques" }, "geometry": { "type": "Point", "coordinates": [ -73.5764239, 45.5201853 ] } },
{ "type": "Feature", "properties": { "id": 454, "name": "Evelyne Boutique", "address": "5127 Rue Sherbrooke Ouest, Montréal", "city": "Montréal", "description": null, "facebook_url": "https:\/\/www.facebook.com\/boutiqueevelyne\/?_ga=2.58758957.1617247183.1585628945-1472561840.1585628945", "twitter_url": null, "instagram_url": "https:\/\/www.instagram.com\/boutiqueevelyne\/?_ga=2.3735088.1617247183.1585628945-1472561840.1585628945", "website": "http:\/\/www.evelyneboutique.com\/", "hours": "Temporairement fermé", "pickup": null, "phone": "(514) 903-6554", "where": "Physique et ecommerce", "Latitude": 45.4762121, "Longitude": -73.6066521, "ecommerce": "Opérationnel", "details": null, "type": "Magasins & Boutiques" }, "geometry": { "type": "Point", "coordinates": [ -73.6066521, 45.4762121 ] } },
{ "type": "Feature", "properties": { "id": 455, "name": "Ex-Voto", "address": "6534 Boulevard Saint-Laurent, Montréal", "city": "Montréal", "description": null, "facebook_url": "https:\/\/www.facebook.com\/exvotoboutique\/", "twitter_url": null, "instagram_url": "https:\/\/www.instagram.com\/ex.voto", "website": "https:\/\/exvoto.ca\/", "hours": "Temporairement fermé", "pickup": null, "phone": "(514) 544-8230", "where": "Physique et ecommerce", "Latitude": 45.5311232, "Longitude": -73.6104837, "ecommerce": "Opérationnel", "details": null, "type": "Magasins & Boutiques" }, "geometry": { "type": "Point", "coordinates": [ -73.6104837, 45.5311232 ] } },
{ "type": "Feature", "properties": { "id": 456, "name": "Fauchois Fleurs", "address": "4683 Rue Saint-Denis, Montréal", "city": "Montréal", "description": null, "facebook_url": "https:\/\/www.facebook.com\/FauchoisFleurs", "twitter_url": null, "instagram_url": "http:\/\/instagram.com\/fauchoisfleurs", "website": "https:\/\/www.fauchoisfleurs.com\/", "hours": "Temporairement fermé", "pickup": null, "phone": "(514) 844-4417", "where": "Physique et ecommerce", "Latitude": 45.5253272, "Longitude": -73.5858555, "ecommerce": "Opérationnel", "details": null, "type": "Magasins & Boutiques" }, "geometry": { "type": "Point", "coordinates": [ -73.5858555, 45.5253272 ] } },
{ "type": "Feature", "properties": { "id": 457, "name": "Fleuriste De Lune", "address": "4081 Boulevard Saint-Laurent, Montréal", "city": "Montréal", "description": null, "facebook_url": "https:\/\/www.facebook.com\/fleuristedelune", "twitter_url": "https:\/\/twitter.com\/fleuristedelune", "instagram_url": "https:\/\/instagram.com\/fleuristedelune", "website": "http:\/\/www.fleuristedelune.com\/", "hours": "Temporairement fermé", "pickup": null, "phone": "(514) 284-1118", "where": "Physique et ecommerce", "Latitude": 45.5174372, "Longitude": -73.5804465, "ecommerce": "Opérationnel", "details": null, "type": "Magasins & Boutiques" }, "geometry": { "type": "Point", "coordinates": [ -73.5804465, 45.5174372 ] } },
{ "type": "Feature", "properties": { "id": 459, "name": "Atelier-Boutique Denis Gagnon", "address": "170 Rue Saint-Paul Ouest, Montréal", "city": "Montréal", "description": null, "facebook_url": "https:\/\/www.facebook.com\/denisgagnoncreateur\/", "twitter_url": null, "instagram_url": null, "website": "http:\/\/denisgagnon.ca\/", "hours": "Temporairement fermé", "pickup": null, "phone": "(514) 935-6360", "where": "Physique et ecommerce", "Latitude": 45.5030005, "Longitude": -73.5551486, "ecommerce": "Opérationnel", "details": null, "type": "Magasins & Boutiques" }, "geometry": { "type": "Point", "coordinates": [ -73.5551486, 45.5030005 ] } },
{ "type": "Feature", "properties": { "id": 460, "name": "Général 54", "address": "5145 Boulevard Saint-Laurent, Montréal", "city": "Montréal", "description": null, "facebook_url": "https:\/\/www.facebook.com\/boutiquegeneral54\/", "twitter_url": null, "instagram_url": "https:\/\/www.instagram.com\/general54mtl\/", "website": "http:\/\/general54.com\/", "hours": "Temporairement fermé", "pickup": null, "phone": "(514) 271-2129", "where": "Physique et ecommerce", "Latitude": 45.5230584, "Longitude": -73.5928076, "ecommerce": "Opérationnel", "details": null, "type": "Magasins & Boutiques" }, "geometry": { "type": "Point", "coordinates": [ -73.5928076, 45.5230584 ] } },
{ "type": "Feature", "properties": { "id": 461, "name": "Jet-Setter", "address": "4075 Boulevard Saint-Laurent, Montréal", "city": "Montréal", "description": null, "facebook_url": "https:\/\/www.facebook.com\/jetsetterdotca\/", "twitter_url": null, "instagram_url": null, "website": "http:\/\/www.jet-setter.ca\/", "hours": "Temporairement fermé", "pickup": null, "phone": "(514) 271-5058", "where": "Physique et ecommerce", "Latitude": 45.5174372, "Longitude": -73.5804465, "ecommerce": "Opérationnel", "details": null, "type": "Magasins & Boutiques" }, "geometry": { "type": "Point", "coordinates": [ -73.5804465, 45.5174372 ] } },
{ "type": "Feature", "properties": { "id": 462, "name": "Katrin Leblond Design", "address": "4647 Boulevard Saint-Laurent, Montréal", "city": "Montréal", "description": null, "facebook_url": "https:\/\/www.facebook.com\/BoutiqueKatrinLeblond\/", "twitter_url": null, "instagram_url": "https:\/\/www.instagram.com\/katrinleblond\/", "website": "http:\/\/www.katrinleblond.com\/", "hours": "Temporairement fermé", "pickup": null, "phone": "(514) 678-9616", "where": "Physique et ecommerce", "Latitude": 45.5214748, "Longitude": -73.5893587, "ecommerce": "Opérationnel", "details": "Livraison locale 6h", "type": "Magasins & Boutiques" }, "geometry": { "type": "Point", "coordinates": [ -73.5893587, 45.5214748 ] } },
{ "type": "Feature", "properties": { "id": 464, "name": "L'Intervalle", "address": "705 Rue Sainte-Catherine Ouest, Montréal", "city": "Montréal", "description": null, "facebook_url": "https:\/\/www.facebook.com\/lintervalle\/", "twitter_url": null, "instagram_url": "https:\/\/www.instagram.com\/lintervalle\/", "website": "https:\/\/lintervalleshoes.com\/", "hours": "Temporairement fermé", "pickup": null, "phone": "(514) 840-4549", "where": "Physique et ecommerce", "Latitude": 45.5029088, "Longitude": -73.5700726, "ecommerce": "Opérationnel", "details": null, "type": "Magasins & Boutiques" }, "geometry": { "type": "Point", "coordinates": [ -73.5700726, 45.5029088 ] } },
{ "type": "Feature", "properties": { "id": 465, "name": "Boulangerie Samos", "address": "4379 Boulevard Saint-Laurent, Montréal", "city": "Montréal", "description": null, "facebook_url": null, "twitter_url": null, "instagram_url": null, "website": null, "hours": "Heures d'ouverture habituelles", "pickup": "checked", "phone": "(514) 845-8033", "where": "Physique", "Latitude": 45.5190767, "Longitude": -73.5840842, "ecommerce": null, "details": "Cuillette sur place (pour emporter)", "type": "Boulangerie & pâtisserie" }, "geometry": { "type": "Point", "coordinates": [ -73.5840842, 45.5190767 ] } },
{ "type": "Feature", "properties": { "id": 466, "name": "Point G", "address": "1255 Avenue du Mont-Royal Est, Montréal", "city": "Montréal", "description": null, "facebook_url": "https:\/\/www.facebook.com\/Boutiquepointg\/", "twitter_url": "https:\/\/twitter.com\/boutiquepointg", "instagram_url": "https:\/\/www.instagram.com\/boutiquepointg\/", "website": "http:\/\/boutiquepointg.com\/", "hours": "Heures d'ouverture réduites", "pickup": "checked", "phone": "(514) 750-7515", "where": "Physique et ecommerce", "Latitude": 45.5292986, "Longitude": -73.5780532, "ecommerce": "Opérationnel", "details": "Cuillette sur place (pour emporter),Livraison 24h à 48h", "type": "Boulangerie & pâtisserie" }, "geometry": { "type": "Point", "coordinates": [ -73.5780532, 45.5292986 ] } },
{ "type": "Feature", "properties": { "id": 467, "name": "Ça Va Barder", "address": "55 Rue Fleury Ouest, Montréal", "city": "Montréal", "description": null, "facebook_url": "https:\/\/www.facebook.com\/cavabarderfleury\/", "twitter_url": null, "instagram_url": "https:\/\/www.instagram.com\/cavabarder\/?hl=fr", "website": "http:\/\/cavabarder.ca\/", "hours": "Heures d'ouverture habituelles", "pickup": "checked", "phone": "(514) 564-5759", "where": "Physique", "Latitude": 45.5476236, "Longitude": -73.6654325, "ecommerce": null, "details": "Cuillette sur place (pour emporter)", "type": "Alimentation" }, "geometry": { "type": "Point", "coordinates": [ -73.6654325, 45.5476236 ] } },
{ "type": "Feature", "properties": { "id": 468, "name": "Carrément Tarte", "address": ", Montreal", "city": "Montreal", "description": null, "facebook_url": "https:\/\/www.facebook.com\/carrementtarte", "twitter_url": null, "instagram_url": "https:\/\/www.instagram.com\/carrementtarte\/", "website": "https:\/\/www.carrementtarte.com\/ou-nous-trouver", "hours": "Heures d'ouverture réduites", "pickup": "checked", "phone": "(514) 309-1025", "where": "Physique et ecommerce", "Latitude": 45.5429918, "Longitude": -73.581007, "ecommerce": "Opérationnel", "details": "Cuillette sur place (pour emporter),Livraison 24h à 48h", "type": "Boulangerie & pâtisserie" }, "geometry": { "type": "Point", "coordinates": [ -73.581007, 45.5429918 ] } },
{ "type": "Feature", "properties": { "id": 469, "name": "Charcuterie Fairmont", "address": "3833 Boulevard Saint-Laurent, Montréal", "city": "Montréal", "description": null, "facebook_url": null, "twitter_url": null, "instagram_url": null, "website": "http:\/\/boulevardsaintlaurent.com\/fr\/repertoire\/charcuterie-fairmount\/", "hours": "Heures d'ouverture habituelles", "pickup": "checked", "phone": "+1 (514)-288-8046", "where": "Physique", "Latitude": 45.5159784, "Longitude": -73.5772375, "ecommerce": null, "details": "Cuillette sur place (pour emporter)", "type": "Alimentation" }, "geometry": { "type": "Point", "coordinates": [ -73.5772375, 45.515978399999987 ] } },
{ "type": "Feature", "properties": { "id": 470, "name": "Boucherie Hongroise", "address": "3843 Boulevard Saint-Laurent, Montréal", "city": "Montréal", "description": null, "facebook_url": null, "twitter_url": null, "instagram_url": null, "website": null, "hours": "Heures d'ouverture habituelles", "pickup": "checked", "phone": "(514) 844-6734", "where": "Physique", "Latitude": 45.5159784, "Longitude": -73.5772375, "ecommerce": null, "details": "Cuillette sur place (pour emporter)", "type": "Alimentation" }, "geometry": { "type": "Point", "coordinates": [ -73.5772375, 45.515978399999987 ] } },
{ "type": "Feature", "properties": { "id": 471, "name": "Latina (rue Sherbrooke)", "address": "1434 Rue Sherbrooke Ouest, Montréal", "city": "Montréal", "description": null, "facebook_url": "https:\/\/www.facebook.com\/Latina.Mile.End", "twitter_url": "https:\/\/twitter.com\/chezlatina", "instagram_url": "https:\/\/www.instagram.com\/chezlatina\/", "website": "http:\/\/chezlatina.com\/", "hours": "Heures d'ouverture habituelles", "pickup": "checked", "phone": "(514) 507-6561", "where": "Physique et ecommerce", "Latitude": 45.4982636, "Longitude": -73.5800892, "ecommerce": "Opérationnel", "details": "Cuillette sur place (pour emporter),Livraison 24h à 48h,Livraison 3 à 10 jours", "type": "Alimentation" }, "geometry": { "type": "Point", "coordinates": [ -73.5800892, 45.4982636 ] } },
{ "type": "Feature", "properties": { "id": 472, "name": "Latina (Mile-End)", "address": "185 Saint Viateur Street West, Montreal", "city": "Montreal", "description": null, "facebook_url": null, "twitter_url": null, "instagram_url": null, "website": "http:\/\/www.chezlatina.com", "hours": "Heures d'ouverture habituelles", "pickup": "checked", "phone": "(514) 273-6561", "where": "Physique et ecommerce", "Latitude": 45.5240345, "Longitude": -73.600544, "ecommerce": "Opérationnel", "details": "Cuillette sur place (pour emporter),Livraison 24h à 48h,Livraison 3 à 10 jours", "type": "Alimentation" }, "geometry": { "type": "Point", "coordinates": [ -73.600544, 45.5240345 ] } },
{ "type": "Feature", "properties": { "id": 473, "name": "Chocolats Andrée", "address": "4440 b Rue Saint-Denis, Montréal", "city": "Montréal", "description": null, "facebook_url": "https:\/\/www.facebook.com\/chocolatsandree\/", "twitter_url": null, "instagram_url": "https:\/\/www.instagram.com\/chocolatsandree\/?hl=fr-ca", "website": "http:\/\/chocolatsandree.com\/", "hours": "Heures d'ouverture habituelles", "pickup": "checked", "phone": "(514) 279-5923", "where": "Physique et ecommerce", "Latitude": 45.5239648, "Longitude": -73.5828722, "ecommerce": "Opérationnel", "details": "Cuillette sur place (pour emporter),Livraison 24h à 48h,Livraison 3 à 10 jours,Livraison 2 à 3 jours,Livraison locale 6h", "type": "Alimentation" }, "geometry": { "type": "Point", "coordinates": [ -73.5828722, 45.523964799999987 ] } },
{ "type": "Feature", "properties": { "id": 481, "name": "Café Pista", "address": "500 Rue Beaubien Est, Montréal", "city": "Montréal", "description": null, "facebook_url": "https:\/\/www.facebook.com\/cafepista\/", "twitter_url": null, "instagram_url": null, "website": "http:\/\/www.cafepista.com\/", "hours": "Heures d'ouverture réduites", "pickup": "checked", "phone": "(514) 903-8257", "where": "Physique et ecommerce", "Latitude": 45.5350908, "Longitude": -73.6040399, "ecommerce": "Opérationnel", "details": "Cuillette sur place (pour emporter)", "type": "Café & Thé" }, "geometry": { "type": "Point", "coordinates": [ -73.6040399, 45.5350908 ] } },
{ "type": "Feature", "properties": { "id": 482, "name": "Campo", "address": "1108 Boulevard Maisonneuve O, Montréal", "city": "Montréal", "description": null, "facebook_url": "https:\/\/www.facebook.com\/campomtl\/", "twitter_url": null, "instagram_url": null, "website": "https:\/\/campomtl.com\/?fbclid=IwAR2HwMS-tKpTIZYq53xYenMBt4XTkhnJ_iQhN0ENNskq8nmxmMjWKZ8JH6w", "hours": "Heures d'ouverture réduites", "pickup": null, "phone": null, "where": "Physique", "Latitude": 45.5008878, "Longitude": -73.574726, "ecommerce": null, "details": null, "type": "Restaurant" }, "geometry": { "type": "Point", "coordinates": [ -73.574726, 45.5008878 ] } },
{ "type": "Feature", "properties": { "id": 484, "name": "Chocolats Favoris (Montréal - Ste-Catherine)", "address": "150 Rue Sainte-Catherine Ouest, Montréal", "city": "Montréal", "description": null, "facebook_url": "https:\/\/www.facebook.com\/chocolatsfavoris", "twitter_url": null, "instagram_url": null, "website": "http:\/\/chocolatsfavoris.com\/", "hours": "Temporairement fermé", "pickup": null, "phone": "(438) 387-3381", "where": "Physique et ecommerce", "Latitude": 45.5081885, "Longitude": -73.5652759, "ecommerce": "Opérationnel", "details": "Livraison 3 à 10 jours", "type": "Magasins & Boutiques" }, "geometry": { "type": "Point", "coordinates": [ -73.5652759, 45.5081885 ] } },
{ "type": "Feature", "properties": { "id": 486, "name": "Fruiterie Crescent", "address": "1350 de Maisonneuve O, Montréal", "city": "Montréal", "description": null, "facebook_url": null, "twitter_url": null, "instagram_url": null, "website": null, "hours": "Heures d'ouverture habituelles", "pickup": "checked", "phone": "(514) 842-7525", "where": "Physique", "Latitude": 45.4982468, "Longitude": -73.5773429, "ecommerce": null, "details": "Cuillette sur place (pour emporter)", "type": "Magasins & Boutiques" }, "geometry": { "type": "Point", "coordinates": [ -73.5773429, 45.4982468 ] } },
{ "type": "Feature", "properties": { "id": 487, "name": "Décapsuleur", "address": "307 Rue de la Montagne, Montréal", "city": "Montréal", "description": null, "facebook_url": "https:\/\/www.facebook.com\/decapsuleur.mtl\/", "twitter_url": null, "instagram_url": "https:\/\/www.instagram.com\/decapsuleur.mtl\/", "website": "http:\/\/www.decapsuleur.ca\/", "hours": "Heures d'ouverture habituelles", "pickup": null, "phone": "(514) 545-4220", "where": "Physique et ecommerce", "Latitude": 45.4940853, "Longitude": -73.5670801, "ecommerce": "Opérationnel", "details": "Livraison locale 6h", "type": "Bières & Vins" }, "geometry": { "type": "Point", "coordinates": [ -73.5670801, 45.494085299999988 ] } },
{ "type": "Feature", "properties": { "id": 492, "name": "Tacos Frida", "address": "4350 Rue Notre-Dame Ouest, Montréal", "city": "Montréal", "description": null, "facebook_url": "https:\/\/www.facebook.com\/tacosfridamtl\/", "twitter_url": null, "instagram_url": null, "website": "http:\/\/tacosfridamtl.ca\/", "hours": "Heures d'ouverture réduites", "pickup": null, "phone": "(514) 935-9696", "where": "Physique", "Latitude": 45.4753238, "Longitude": -73.5865239, "ecommerce": null, "details": null, "type": "Restaurant" }, "geometry": { "type": "Point", "coordinates": [ -73.5865239, 45.4753238 ] } },
{ "type": "Feature", "properties": { "id": 493, "name": "Épicerie Les Récoltes", "address": "1895 Rue Bélanger, Montréal", "city": "Montréal", "description": null, "facebook_url": "https:\/\/www.facebook.com\/%C3%89picerie-Les-R%C3%A9coltes-1795320337374223\/?ref=br_tf", "twitter_url": null, "instagram_url": "https:\/\/www.instagram.com\/epicerielesrecoltes\/", "website": "http:\/\/www.lesrecoltes.com\/", "hours": "Heures d'ouverture habituelles", "pickup": "checked", "phone": "(514) 907-3331", "where": "Physique", "Latitude": 45.5474874, "Longitude": -73.602458, "ecommerce": null, "details": "Cuillette sur place (pour emporter)", "type": "Magasins & Boutiques" }, "geometry": { "type": "Point", "coordinates": [ -73.602458, 45.5474874 ] } },
{ "type": "Feature", "properties": { "id": 495, "name": "Épicerie LOCO Villeray", "address": "422 Rue Jarry Est, Montréal", "city": "Montréal", "description": null, "facebook_url": "https:\/\/www.facebook.com\/epicerieloco\/", "twitter_url": null, "instagram_url": "https:\/\/www.instagram.com\/epicerieloco\/", "website": "https:\/\/www.epicerieloco.ca\/", "hours": "Heures d'ouverture habituelles", "pickup": "checked", "phone": "(438) 386-7345", "where": "Physique et ecommerce", "Latitude": 45.5429492, "Longitude": -73.6290096, "ecommerce": "Opérationnel", "details": "Cuillette sur place (pour emporter),Livraison locale 6h", "type": "Alimentation" }, "geometry": { "type": "Point", "coordinates": [ -73.6290096, 45.5429492 ] } },
{ "type": "Feature", "properties": { "id": 504, "name": "Épicerie Segal", "address": "4001 Boulevard Saint-Laurent, Montréal", "city": "Montréal", "description": null, "facebook_url": null, "twitter_url": null, "instagram_url": null, "website": null, "hours": "Heures d'ouverture habituelles", "pickup": "checked", "phone": "(514) 845-4716", "where": "Physique", "Latitude": 45.5163369, "Longitude": -73.5779952, "ecommerce": null, "details": "Cuillette sur place (pour emporter)", "type": "Alimentation" }, "geometry": { "type": "Point", "coordinates": [ -73.5779952, 45.5163369 ] } },
{ "type": "Feature", "properties": { "id": 506, "name": "Folie En Vrac Inc", "address": "1254 Rue Sainte-Catherine Est, Montréal", "city": "Montréal", "description": null, "facebook_url": "https:\/\/www.facebook.com\/VracEnFolie\/", "twitter_url": null, "instagram_url": null, "website": "https:\/\/www.vracenfolie.com\/", "hours": "Heures d'ouverture réduites", "pickup": "checked", "phone": "(514) 526-3689", "where": "Physique et ecommerce", "Latitude": 45.5189509, "Longitude": -73.5557399, "ecommerce": "Opérationnel", "details": "Livraison 2 à 3 jours,Livraison 24h à 48h,Cuillette sur place (pour emporter)", "type": "Alimentation" }, "geometry": { "type": "Point", "coordinates": [ -73.5557399, 45.5189509 ] } },
{ "type": "Feature", "properties": { "id": 508, "name": "La Mie Matinale", "address": "1654 Rue Sainte-Catherine Est, Montréal", "city": "Montréal", "description": null, "facebook_url": "https:\/\/www.facebook.com\/pages\/category\/Coffee-Shop\/La-Mie-Matinale-203443137952\/", "twitter_url": null, "instagram_url": null, "website": "http:\/\/www.lamiematinale.ca\/", "hours": "Heures d'ouverture prolongées", "pickup": "checked", "phone": "(514) 529-5656", "where": "Physique", "Latitude": 45.5219687, "Longitude": -73.5529515, "ecommerce": null, "details": "Cuillette sur place (pour emporter)", "type": "Boulangerie & pâtisserie" }, "geometry": { "type": "Point", "coordinates": [ -73.5529515, 45.5219687 ] } },
{ "type": "Feature", "properties": { "id": 509, "name": "Fou d'ici", "address": "360 Boulevard de Maisonneuve Ouest, Montréal", "city": "Montréal", "description": null, "facebook_url": "https:\/\/www.facebook.com\/FOUDICI\/", "twitter_url": "https:\/\/twitter.com\/@FOUDICI", "instagram_url": "https:\/\/www.instagram.com\/foudici\/", "website": "http:\/\/www.foudici.com\/", "hours": "Heures d'ouverture habituelles", "pickup": null, "phone": "(514) 600-3424", "where": "Physique et ecommerce", "Latitude": 45.50583, "Longitude": -73.5702011, "ecommerce": "Opérationnel", "details": "Livraison 24h à 48h,Livraison locale 6h", "type": "Magasins & Boutiques" }, "geometry": { "type": "Point", "coordinates": [ -73.5702011, 45.50583 ] } },
{ "type": "Feature", "properties": { "id": 520, "name": "Intermarché Boyer", "address": "1000 Avenue du Mont-Royal Est, Montréal", "city": "Montréal", "description": null, "facebook_url": "https:\/\/www.facebook.com\/intermarcheboyer\/?ref=bookmarks", "twitter_url": "https:\/\/twitter.com\/coeurduplateau", "instagram_url": "https:\/\/www.instagram.com\/explore\/locations\/296113992\/", "website": "http:\/\/intermarcheboyer.com\/?fbclid=IwAR0Rls4hrJhYYpAD7_bMriht8dMAtiYGqwPw5UJBBuIliSRgGOXPpn1hMVc", "hours": "Heures d'ouverture habituelles", "pickup": "checked", "phone": "(514) 598-5946", "where": "Physique", "Latitude": 45.5273634, "Longitude": -73.5798191, "ecommerce": null, "details": "Cuillette sur place (pour emporter),Livraison locale 6h", "type": "Alimentation" }, "geometry": { "type": "Point", "coordinates": [ -73.5798191, 45.5273634 ] } },
{ "type": "Feature", "properties": { "id": 522, "name": "Le Boucan Smokehouse", "address": "1886 Rue Notre-Dame Ouest, Montréal", "city": "Montréal", "description": null, "facebook_url": "https:\/\/www.facebook.com\/RestoLeBoucan\/", "twitter_url": null, "instagram_url": null, "website": "http:\/\/www.leboucan.com\/", "hours": "Heures d'ouverture réduites", "pickup": null, "phone": "(514) 439-4555", "where": "Physique", "Latitude": 45.4871093, "Longitude": -73.5693264, "ecommerce": null, "details": null, "type": "Restaurant" }, "geometry": { "type": "Point", "coordinates": [ -73.5693264, 45.4871093 ] } },
{ "type": "Feature", "properties": { "id": 525, "name": "Le Diplomate", "address": "129 Rue Beaubien Ouest, Montréal", "city": "Montréal", "description": null, "facebook_url": "https:\/\/www.facebook.com\/LeDiplomateMTL\/", "twitter_url": null, "instagram_url": null, "website": "http:\/\/www.restaurantlediplomate.com\/", "hours": "Heures d'ouverture réduites", "pickup": null, "phone": "(514) 303-9727", "where": "Physique", "Latitude": 45.5292497, "Longitude": -73.6107, "ecommerce": null, "details": null, "type": "Restaurant" }, "geometry": { "type": "Point", "coordinates": [ -73.6107, 45.5292497 ] } },
{ "type": "Feature", "properties": { "id": 528, "name": "Vua Sandwiches", "address": "1621 Rue Sainte-Catherine Ouest, Montréal", "city": "Montréal", "description": null, "facebook_url": "https:\/\/www.facebook.com\/vuasandwich\/", "twitter_url": null, "instagram_url": null, "website": "http:\/\/www.vuasandwichs.com\/fr\/", "hours": "Heures d'ouverture réduites", "pickup": "checked", "phone": "(438) 387-1387", "where": "Physique", "Latitude": 45.4947555, "Longitude": -73.5781808, "ecommerce": null, "details": "Cuillette sur place (pour emporter)", "type": "Restaurant" }, "geometry": { "type": "Point", "coordinates": [ -73.5781808, 45.4947555 ] } },
{ "type": "Feature", "properties": { "id": 529, "name": "M4 Burritos Saint-Denis", "address": "1773 Rue Saint-Denis, Montréal", "city": "Montréal", "description": null, "facebook_url": "https:\/\/www.facebook.com\/M4Burritos\/", "twitter_url": null, "instagram_url": null, "website": "https:\/\/m4burritos.ca\/en\/locations\/", "hours": "Heures d'ouverture réduites", "pickup": null, "phone": "(438) 380-8090", "where": "Physique", "Latitude": 45.5154436, "Longitude": -73.5641988, "ecommerce": null, "details": null, "type": "Restaurant" }, "geometry": { "type": "Point", "coordinates": [ -73.5641988, 45.5154436 ] } },
{ "type": "Feature", "properties": { "id": 530, "name": "La Bête à Pain (rue Fleury)", "address": "114 Rue Fleury Ouest, Montréal", "city": "Montréal", "description": null, "facebook_url": "https:\/\/www.facebook.com\/labeteapain\/", "twitter_url": "https:\/\/twitter.com\/labeteapain", "instagram_url": "https:\/\/www.instagram.com\/marcandreroyal\/", "website": "http:\/\/www.labeteapain.com\/", "hours": "Heures d'ouverture habituelles", "pickup": "checked", "phone": "(514) 507-7109", "where": "Physique", "Latitude": 45.5469571, "Longitude": -73.6658181, "ecommerce": null, "details": "Cuillette sur place (pour emporter)", "type": "Restaurant" }, "geometry": { "type": "Point", "coordinates": [ -73.6658181, 45.5469571 ] } },
{ "type": "Feature", "properties": { "id": 532, "name": "Sumi Dojo", "address": "3479 Boulevard Saint-Laurent, Montréal", "city": "Montréal", "description": null, "facebook_url": "https:\/\/www.facebook.com\/sumidojo\/", "twitter_url": null, "instagram_url": null, "website": "https:\/\/www.sumidojo.com\/", "hours": "Heures d'ouverture habituelles", "pickup": null, "phone": "(514) 507-7864", "where": "Physique", "Latitude": 45.5129703, "Longitude": -73.5704868, "ecommerce": null, "details": null, "type": "Restaurant" }, "geometry": { "type": "Point", "coordinates": [ -73.5704868, 45.5129703 ] } },
{ "type": "Feature", "properties": { "id": 533, "name": "La Bête à Pain (VIeux-Montréal)", "address": "195 Rue Young, Montréal", "city": "Montréal", "description": null, "facebook_url": "https:\/\/www.facebook.com\/labeteapain\/", "twitter_url": "https:\/\/twitter.com\/labeteapain", "instagram_url": "https:\/\/www.instagram.com\/marcandreroyal\/", "website": "https:\/\/www.labeteapain.com\/", "hours": "Heures d'ouverture habituelles", "pickup": "checked", "phone": "(514) 509-8937", "where": "Physique", "Latitude": 45.4930548, "Longitude": -73.558502, "ecommerce": null, "details": "Cuillette sur place (pour emporter)", "type": "Boulangerie & pâtisserie" }, "geometry": { "type": "Point", "coordinates": [ -73.558502, 45.4930548 ] } },
{ "type": "Feature", "properties": { "id": 534, "name": "Lecavalier Petrone", "address": "2423 Rue du Centre, Montréal", "city": "Montréal", "description": null, "facebook_url": "https:\/\/www.facebook.com\/Lecavalier-Petrone-1684328461838916\/", "twitter_url": null, "instagram_url": "https:\/\/www.instagram.com\/lecavalierpetrone\/", "website": "http:\/\/lecavalierpetrone.com\/", "hours": "Temporairement fermé", "pickup": null, "phone": "(514) 448-4014", "where": "Physique et ecommerce", "Latitude": 45.4791094, "Longitude": -73.568303, "ecommerce": "Opérationnel", "details": "Livraison 24h à 48h,Livraison locale 6h", "type": "Magasins & Boutiques" }, "geometry": { "type": "Point", "coordinates": [ -73.568303, 45.4791094 ] } },
{ "type": "Feature", "properties": { "id": 537, "name": "Café Melbourne", "address": "4615 Boulevard Saint-Laurent, Montréal", "city": "Montréal", "description": null, "facebook_url": "https:\/\/www.facebook.com\/melbcafe\/", "twitter_url": null, "instagram_url": null, "website": "https:\/\/www.facebook.com\/melbcafe\/", "hours": "Heures d'ouverture habituelles", "pickup": null, "phone": null, "where": "Physique", "Latitude": 45.5214748, "Longitude": -73.5893587, "ecommerce": null, "details": null, "type": "Café & Thé" }, "geometry": { "type": "Point", "coordinates": [ -73.5893587, 45.5214748 ] } },
{ "type": "Feature", "properties": { "id": 538, "name": "Robin des Bois", "address": "4653 Boulevard Saint-Laurent, Montréal", "city": "Montréal", "description": null, "facebook_url": "https:\/\/www.facebook.com\/RestoRobindesBois", "twitter_url": null, "instagram_url": null, "website": "https:\/\/robindesbois.ca\/", "hours": "Heures d'ouverture réduites", "pickup": null, "phone": "(514) 288-1010", "where": "Physique", "Latitude": 45.5214748, "Longitude": -73.5893587, "ecommerce": null, "details": null, "type": "Restaurant" }, "geometry": { "type": "Point", "coordinates": [ -73.5893587, 45.5214748 ] } },
{ "type": "Feature", "properties": { "id": 539, "name": "Pizzeria Moretti", "address": "1059 Rue Wellington, Montréal", "city": "Montréal", "description": null, "facebook_url": "https:\/\/www.facebook.com\/pizzeriamoretti\/", "twitter_url": null, "instagram_url": null, "website": "http:\/\/pizzeriamoretti.com\/", "hours": "Heures d'ouverture habituelles", "pickup": null, "phone": "(514) 954-0000", "where": "Physique", "Latitude": 45.4937508, "Longitude": -73.5571234, "ecommerce": null, "details": null, "type": "Restaurant" }, "geometry": { "type": "Point", "coordinates": [ -73.5571234, 45.4937508 ] } },
{ "type": "Feature", "properties": { "id": 542, "name": "Omnivore", "address": "4306 Boulevard Saint-Laurent, Montréal", "city": "Montréal", "description": null, "facebook_url": "https:\/\/www.facebook.com\/omnivoregrill\/", "twitter_url": null, "instagram_url": null, "website": "http:\/\/www.omnivoregrill.com\/", "hours": "Heures d'ouverture habituelles", "pickup": null, "phone": "(514) 303-5757", "where": "Physique", "Latitude": 45.5188941, "Longitude": -73.5836558, "ecommerce": null, "details": null, "type": "Restaurant" }, "geometry": { "type": "Point", "coordinates": [ -73.5836558, 45.5188941 ] } },
{ "type": "Feature", "properties": { "id": 543, "name": "Pourquoi Pas espresso bar", "address": "1447 Rue Amherst, Montréal", "city": "Montréal", "description": null, "facebook_url": "https:\/\/www.facebook.com\/PQuoiPas", "twitter_url": null, "instagram_url": null, "website": "https:\/\/www.facebook.com\/PQuoiPas", "hours": "Heures d'ouverture habituelles", "pickup": null, "phone": "(514) 419-9400", "where": "Physique", "Latitude": 45.5173615, "Longitude": -73.5568663, "ecommerce": null, "details": null, "type": "Magasins & Boutiques" }, "geometry": { "type": "Point", "coordinates": [ -73.5568663, 45.5173615 ] } },
{ "type": "Feature", "properties": { "id": 544, "name": "Les Glaceurs", "address": "1245 Boulevard Robert-Bourassa, Montréal", "city": "Montréal", "description": null, "facebook_url": "https:\/\/www.facebook.com\/LesGlaceurs", "twitter_url": null, "instagram_url": null, "website": "http:\/\/www.lesglaceurs.ca\/", "hours": "Heures d'ouverture habituelles", "pickup": "checked", "phone": "(514) 508-9928", "where": "Physique et ecommerce", "Latitude": 45.5027516, "Longitude": -73.5689958, "ecommerce": "Opérationnel", "details": "Cuillette sur place (pour emporter),Livraison locale 6h", "type": "Magasins & Boutiques" }, "geometry": { "type": "Point", "coordinates": [ -73.5689958, 45.5027516 ] } },
{ "type": "Feature", "properties": { "id": 545, "name": "M.& Mme Chocolat", "address": "273 Rue Beaubien Est, Montréal", "city": "Montréal", "description": null, "facebook_url": "https:\/\/www.facebook.com\/m.mmechocolat\/", "twitter_url": null, "instagram_url": null, "website": "http:\/\/www.mmmechocolat.com\/", "hours": "Heures d'ouverture réduites", "pickup": "checked", "phone": "(514) 379-3924", "where": "Physique et ecommerce", "Latitude": 45.5328441, "Longitude": -73.6060779, "ecommerce": "Opérationnel", "details": "Cuillette sur place (pour emporter),Livraison 24h à 48h", "type": "Magasins & Boutiques" }, "geometry": { "type": "Point", "coordinates": [ -73.6060779, 45.5328441 ] } },
{ "type": "Feature", "properties": { "id": 546, "name": "Restaurant Vesta", "address": "206 Rue Jarry Est, Montréal", "city": "Montréal", "description": null, "facebook_url": "https:\/\/www.facebook.com\/pages\/category\/Italian-Restaurant\/Vesta-Mtl-438593503392363\/", "twitter_url": null, "instagram_url": null, "website": "https:\/\/vestamtl.com\/", "hours": "Heures d'ouverture habituelles", "pickup": null, "phone": "(514) 543-7725", "where": "Physique", "Latitude": 45.5406956, "Longitude": -73.6302855, "ecommerce": null, "details": null, "type": "Restaurant" }, "geometry": { "type": "Point", "coordinates": [ -73.6302855, 45.5406956 ] } },
{ "type": "Feature", "properties": { "id": 547, "name": "Boutique Unicorn", "address": "5135 Boulevard Saint-Laurent, Montréal", "city": "Montréal", "description": null, "facebook_url": "https:\/\/www.facebook.com\/boutiqueunicorn", "twitter_url": null, "instagram_url": null, "website": "https:\/\/www.boutiqueunicorn.com\/", "hours": "Heures d'ouverture réduites", "pickup": null, "phone": "(514) 544-2828", "where": "Physique et ecommerce", "Latitude": 45.5230584, "Longitude": -73.5928076, "ecommerce": "Opérationnel", "details": "Livraison 2 à 3 jours,Livraison 3 à 10 jours", "type": "Magasins & Boutiques" }, "geometry": { "type": "Point", "coordinates": [ -73.5928076, 45.5230584 ] } },
{ "type": "Feature", "properties": { "id": 549, "name": "Animalerie Too Zoo", "address": "4066 Boulevard Saint-Laurent, Montréal", "city": "Montréal", "description": null, "facebook_url": "https:\/\/www.facebook.com\/toozoo.ca\/", "twitter_url": null, "instagram_url": null, "website": null, "hours": "Heures d'ouverture habituelles", "pickup": null, "phone": "(514) 842-9996", "where": "Physique", "Latitude": 45.5175114, "Longitude": -73.5806131, "ecommerce": null, "details": null, "type": "Magasins & Boutiques" }, "geometry": { "type": "Point", "coordinates": [ -73.5806131, 45.5175114 ] } },
{ "type": "Feature", "properties": { "id": 550, "name": "Roch le Coq", "address": "1541 Avenue Van Horne, Montréal", "city": "Montréal", "description": null, "facebook_url": "https:\/\/www.facebook.com\/pages\/category\/Chicken-Joint\/Roch-le-Coq-487519905338489\/", "twitter_url": null, "instagram_url": null, "website": "http:\/\/pouletfritmontreal.com\/", "hours": "Heures d'ouverture habituelles", "pickup": null, "phone": "(514) 637-2337", "where": "Physique", "Latitude": 45.5190187, "Longitude": -73.6163364, "ecommerce": null, "details": null, "type": "Restaurant" }, "geometry": { "type": "Point", "coordinates": [ -73.6163364, 45.5190187 ] } },
{ "type": "Feature", "properties": { "id": 551, "name": "Marché Newon", "address": "1616 Rue Sainte-Catherine Ouest, Montréal", "city": "Montréal", "description": null, "facebook_url": null, "twitter_url": null, "instagram_url": null, "website": "http:\/\/www.marchenewon.com\/", "hours": "Heures d'ouverture habituelles", "pickup": "checked", "phone": "(514) 935-6338", "where": "Physique", "Latitude": 45.4940856, "Longitude": -73.5789616, "ecommerce": null, "details": "Cuillette sur place (pour emporter)", "type": "Magasins & Boutiques" }, "geometry": { "type": "Point", "coordinates": [ -73.5789616, 45.494085600000012 ] } },
{ "type": "Feature", "properties": { "id": 553, "name": "Nouveau Palais", "address": "281 Rue Bernard Ouest, Montréal", "city": "Montréal", "description": null, "facebook_url": "https:\/\/www.facebook.com\/nouveaupalais\/", "twitter_url": null, "instagram_url": null, "website": "http:\/\/www.nouveaupalais.com\/", "hours": "Heures d'ouverture réduites", "pickup": null, "phone": "(514) 273-1180", "where": "Physique", "Latitude": 45.5240522, "Longitude": -73.6052262, "ecommerce": null, "details": null, "type": "Restaurant" }, "geometry": { "type": "Point", "coordinates": [ -73.6052262, 45.5240522 ] } },
{ "type": "Feature", "properties": { "id": 554, "name": "La Fabrique Arhoma", "address": "1700 Rue Ontario Est, Montréal", "city": "Montréal", "description": null, "facebook_url": "https:\/\/www.facebook.com\/LaFabriqueArhoma", "twitter_url": null, "instagram_url": null, "website": "http:\/\/arhoma.ca\/", "hours": "Heures d'ouverture habituelles", "pickup": "checked", "phone": "(514) 598-1700", "where": "Physique et ecommerce", "Latitude": 45.5254859, "Longitude": -73.5596799, "ecommerce": "Opérationnel", "details": "Cuillette sur place (pour emporter),Livraison 24h à 48h", "type": "Boulangerie & pâtisserie" }, "geometry": { "type": "Point", "coordinates": [ -73.5596799, 45.5254859 ] } },
{ "type": "Feature", "properties": { "id": 555, "name": "Slak", "address": "352 Rue Villeray, Montréal", "city": "Montréal", "description": null, "facebook_url": "https:\/\/www.facebook.com\/slakmodefeminine\/", "twitter_url": null, "instagram_url": null, "website": "http:\/\/slak.ca\/", "hours": "Heures d'ouverture réduites", "pickup": null, "phone": "(514) 273-2816", "where": "Physique et ecommerce", "Latitude": 45.5403941, "Longitude": -73.6232321, "ecommerce": "Opérationnel", "details": "Livraison 2 à 3 jours,Livraison 3 à 10 jours", "type": "Magasins & Boutiques" }, "geometry": { "type": "Point", "coordinates": [ -73.6232321, 45.5403941 ] } },
{ "type": "Feature", "properties": { "id": 556, "name": "Pâtisserie Rhubarbe", "address": "1479 Avenue Laurier Est, Montréal", "city": "Montréal", "description": null, "facebook_url": "http:\/\/www.facebook.com\/pages\/Patisserie-Rhubarbe\/101068433286483", "twitter_url": null, "instagram_url": null, "website": "http:\/\/www.patisserierhubarbe.com\/", "hours": "Heures d'ouverture réduites", "pickup": "checked", "phone": "(514) 316-2935", "where": "Physique et ecommerce", "Latitude": 45.534662, "Longitude": -73.5827033, "ecommerce": "Opérationnel", "details": "Cuillette sur place (pour emporter),Livraison 24h à 48h", "type": "Boulangerie & pâtisserie" }, "geometry": { "type": "Point", "coordinates": [ -73.5827033, 45.534662 ] } },
{ "type": "Feature", "properties": { "id": 557, "name": "Lawrence", "address": "5201 Boulevard Saint-Laurent, Montréal", "city": "Montréal", "description": null, "facebook_url": "https:\/\/www.facebook.com\/lawrencemtl\/", "twitter_url": null, "instagram_url": null, "website": "http:\/\/www.lawrencerestaurant.com\/", "hours": "Heures d'ouverture réduites", "pickup": null, "phone": "(514) 503-1070", "where": "Physique", "Latitude": 45.5241038, "Longitude": -73.5951356, "ecommerce": null, "details": null, "type": "Restaurant" }, "geometry": { "type": "Point", "coordinates": [ -73.5951356, 45.5241038 ] } },
{ "type": "Feature", "properties": { "id": 558, "name": "Atelier SELFISH", "address": "5446 Rue Chapleau, Montréal", "city": "Montréal", "description": null, "facebook_url": "https:\/\/www.facebook.com\/SELFISHswimwear\/", "twitter_url": null, "instagram_url": null, "website": "http:\/\/selfishswimwear.com\/", "hours": "Temporairement fermé", "pickup": null, "phone": "(514) 293-9627", "where": "Physique et ecommerce", "Latitude": 45.5426641, "Longitude": -73.5788589, "ecommerce": "Opérationnel", "details": "Livraison 3 à 10 jours,Livraison 2 à 3 jours", "type": "Magasins & Boutiques" }, "geometry": { "type": "Point", "coordinates": [ -73.5788589, 45.5426641 ] } },
{ "type": "Feature", "properties": { "id": 560, "name": "La Chronique", "address": "104 Avenue Laurier Ouest, Montréal", "city": "Montréal", "description": null, "facebook_url": "https:\/\/www.facebook.com\/pages\/category\/French-Restaurant\/Restaurant-La-Chronique-156566617717198\/", "twitter_url": null, "instagram_url": null, "website": "http:\/\/www.lachronique.qc.ca\/", "hours": "Heures d'ouverture habituelles", "pickup": null, "phone": "(514) 271-3095", "where": "Physique", "Latitude": 45.5209869, "Longitude": -73.5945808, "ecommerce": null, "details": null, "type": "Restaurant" }, "geometry": { "type": "Point", "coordinates": [ -73.5945808, 45.5209869 ] } },
{ "type": "Feature", "properties": { "id": 561, "name": "BreWskey Taproom", "address": "385 Rue de la Commune Est, Montréal", "city": "Montréal", "description": null, "facebook_url": "https:\/\/www.facebook.com\/BrasserieBreWskey\/", "twitter_url": null, "instagram_url": null, "website": "https:\/\/www.brasseriebrewskey.ca\/brasserie\/", "hours": "Heures d'ouverture habituelles", "pickup": null, "phone": "(514) 507-2739", "where": "Physique et ecommerce", "Latitude": 45.5095772, "Longitude": -73.5508186, "ecommerce": "Opérationnel", "details": null, "type": "Restaurant" }, "geometry": { "type": "Point", "coordinates": [ -73.5508186, 45.5095772 ] } },
{ "type": "Feature", "properties": { "id": 562, "name": "Pilar Agueci Jewellery", "address": "180 Rue Beaubien Est, Montréal", "city": "Montréal", "description": null, "facebook_url": "https:\/\/www.facebook.com\/pilar.agueci\/", "twitter_url": null, "instagram_url": null, "website": "http:\/\/www.pilaragueci.com\/", "hours": "Temporairement fermé", "pickup": null, "phone": "(438) 328-0168", "where": "Physique et ecommerce", "Latitude": 45.531406, "Longitude": -73.6073848, "ecommerce": "Opérationnel", "details": "Livraison 2 à 3 jours,Livraison 3 à 10 jours", "type": "Magasins & Boutiques" }, "geometry": { "type": "Point", "coordinates": [ -73.6073848, 45.531406 ] } },
{ "type": "Feature", "properties": { "id": 565, "name": "Vinum Design (Montréal)", "address": "1480 Rue City Councillors, Montréal", "city": "Montréal", "description": null, "facebook_url": "https:\/\/www.facebook.com\/VinumDesign", "twitter_url": null, "instagram_url": null, "website": "https:\/\/vinumdesign.com\/", "hours": "Temporairement fermé", "pickup": "checked", "phone": "(514) 985-3200", "where": "Physique et ecommerce", "Latitude": 45.5053281, "Longitude": -73.5695708, "ecommerce": "Opérationnel", "details": "Cuillette sur place (pour emporter),Livraison 3 à 10 jours", "type": "Magasins & Boutiques" }, "geometry": { "type": "Point", "coordinates": [ -73.5695708, 45.5053281 ] } },
{ "type": "Feature", "properties": { "id": 567, "name": "Heirloom Vin & Pizza", "address": "3991 Rue Ontario Est, Montréal", "city": "Montréal", "description": null, "facebook_url": "https:\/\/www.facebook.com\/pizzeriaheirloom", "twitter_url": null, "instagram_url": null, "website": "http:\/\/pizzeriaheirloom.ca\/", "hours": "Heures d'ouverture habituelles", "pickup": null, "phone": "(514) 905-8211", "where": "Physique", "Latitude": 45.5495084, "Longitude": -73.5417465, "ecommerce": null, "details": null, "type": "Restaurant" }, "geometry": { "type": "Point", "coordinates": [ -73.5417465, 45.5495084 ] } },
{ "type": "Feature", "properties": { "id": 568, "name": "Grumman'78", "address": "630 Rue de Courcelle, Montréal", "city": "Montréal", "description": null, "facebook_url": "https:\/\/www.facebook.com\/Grumman78", "twitter_url": null, "instagram_url": null, "website": "https:\/\/www.grumman78.com\/", "hours": "Heures d'ouverture réduites", "pickup": null, "phone": "(514) 290-5125", "where": "Physique", "Latitude": 45.4744479, "Longitude": -73.5923843, "ecommerce": null, "details": null, "type": "Restaurant" }, "geometry": { "type": "Point", "coordinates": [ -73.5923843, 45.4744479 ] } },
{ "type": "Feature", "properties": { "id": 569, "name": "Gema Pizzeria", "address": "6827 Rue Saint-Dominique, Montréal", "city": "Montréal", "description": null, "facebook_url": "https:\/\/www.facebook.com\/PizzeriaGema\/", "twitter_url": null, "instagram_url": null, "website": "http:\/\/pizzeriagema.com\/", "hours": "Heures d'ouverture réduites", "pickup": null, "phone": "(514) 419-4448", "where": "Physique", "Latitude": 45.53291, "Longitude": -73.6123743, "ecommerce": null, "details": null, "type": "Restaurant" }, "geometry": { "type": "Point", "coordinates": [ -73.6123743, 45.53291 ] } },
{ "type": "Feature", "properties": { "id": 572, "name": "Restaurant Fugazzi", "address": "1886 Rue du Centre, Montréal", "city": "Montréal", "description": null, "facebook_url": "https:\/\/www.facebook.com\/Fugazzi-Pizza-1912739252090136\/", "twitter_url": null, "instagram_url": null, "website": "http:\/\/www.fugazzimtl.com\/", "hours": "Heures d'ouverture réduites", "pickup": null, "phone": "(438) 522-7499", "where": "Physique", "Latitude": 45.4829207, "Longitude": -73.5620896, "ecommerce": null, "details": null, "type": "Restaurant" }, "geometry": { "type": "Point", "coordinates": [ -73.5620896, 45.4829207 ] } },
{ "type": "Feature", "properties": { "id": 573, "name": "Kittel Atelier de café", "address": "5500 Rue Fullum, Montréal", "city": "Montréal", "description": null, "facebook_url": "https:\/\/www.facebook.com\/KittelCoffee\/", "twitter_url": null, "instagram_url": null, "website": "http:\/\/kittelcoffee.com\/", "hours": null, "pickup": null, "phone": "(514) 303-2244", "where": "Ecommerce seulement", "Latitude": 45.5426056, "Longitude": -73.5811643, "ecommerce": "Opérationnel", "details": "Livraison 2 à 3 jours,Livraison 3 à 10 jours", "type": "Café & Thé" }, "geometry": { "type": "Point", "coordinates": [ -73.5811643, 45.542605599999987 ] } },
{ "type": "Feature", "properties": { "id": 589, "name": "Fiorellino (de la Gauchetière)", "address": "470 Rue De La Gauchetière Ouest, Montréal", "city": "Montréal", "description": null, "facebook_url": "https:\/\/www.facebook.com\/FiorellinoSnackBar\/", "twitter_url": null, "instagram_url": null, "website": "http:\/\/www.fiorellino.ca\/", "hours": "Heures d'ouverture réduites", "pickup": null, "phone": "(514) 878-3666", "where": "Physique", "Latitude": 45.5026511, "Longitude": -73.563864, "ecommerce": null, "details": null, "type": "Restaurant" }, "geometry": { "type": "Point", "coordinates": [ -73.563864, 45.5026511 ] } },
{ "type": "Feature", "properties": { "id": 590, "name": "Les Enfants Sauvages - Atelier", "address": "5795 Avenue de Gaspé, Montréal", "city": "Montréal", "description": null, "facebook_url": "https:\/\/www.facebook.com\/lesenfantssauvages\/", "twitter_url": null, "instagram_url": null, "website": "http:\/\/lesenfantssauvages.com\/", "hours": null, "pickup": null, "phone": "(514) 813-2046", "where": "Ecommerce seulement", "Latitude": 45.5284253, "Longitude": -73.5991557, "ecommerce": "Opérationnel", "details": "Livraison 2 à 3 jours,Livraison 3 à 10 jours", "type": "Magasins & Boutiques" }, "geometry": { "type": "Point", "coordinates": [ -73.599155700000011, 45.528425299999988 ] } },
{ "type": "Feature", "properties": { "id": 596, "name": "Damas", "address": "1201 Avenue Van Horne, Montréal", "city": "Montréal", "description": null, "facebook_url": "https:\/\/www.facebook.com\/pages\/category\/Mediterranean-Restaurant\/Damas-Restaurant-126815284031750\/", "twitter_url": null, "instagram_url": null, "website": "http:\/\/www.restaurant-damas.com\/", "hours": "Heures d'ouverture réduites", "pickup": null, "phone": "(514) 439-5435", "where": "Physique", "Latitude": 45.5223914, "Longitude": -73.6132594, "ecommerce": null, "details": null, "type": "Restaurant" }, "geometry": { "type": "Point", "coordinates": [ -73.6132594, 45.5223914 ] } },
{ "type": "Feature", "properties": { "id": 597, "name": "L.L.Y. Atelier", "address": "7080 Rue Alexandra, Montréal", "city": "Montréal", "description": null, "facebook_url": "https:\/\/www.facebook.com\/LLYatelier\/", "twitter_url": null, "instagram_url": null, "website": "http:\/\/www.llyatelier.com\/", "hours": null, "pickup": null, "phone": null, "where": "Ecommerce seulement", "Latitude": 45.5323269, "Longitude": -73.6201908, "ecommerce": "Opérationnel", "details": null, "type": "Magasins & Boutiques" }, "geometry": { "type": "Point", "coordinates": [ -73.6201908, 45.5323269 ] } },
{ "type": "Feature", "properties": { "id": 601, "name": "LOOP Mission", "address": "7767 Rue Saint-Hubert, Montréal", "city": "Montréal", "description": null, "facebook_url": "https:\/\/www.facebook.com\/LOOPMission\/", "twitter_url": null, "instagram_url": null, "website": "http:\/\/www.loopmission.com\/", "hours": null, "pickup": null, "phone": "(514) 994-7625", "where": "Ecommerce seulement", "Latitude": 45.5449048, "Longitude": -73.6228073, "ecommerce": "Opérationnel", "details": "Livraison 3 à 10 jours,Livraison 2 à 3 jours", "type": "Alimentation" }, "geometry": { "type": "Point", "coordinates": [ -73.6228073, 45.5449048 ] } },
{ "type": "Feature", "properties": { "id": 624, "name": "Chalet Bar-B-Q", "address": "5456 Rue Sherbrooke Ouest, Montréal", "city": "Montréal", "description": null, "facebook_url": "https:\/\/www.facebook.com\/pages\/Chalet-Bar-B-Q-Rotisserie\/123644131008132", "twitter_url": null, "instagram_url": null, "website": "http:\/\/www.chaletbbq.com\/", "hours": "Heures d'ouverture habituelles", "pickup": null, "phone": "(514) 489-7235", "where": "Physique", "Latitude": 45.4728486, "Longitude": -73.6114308, "ecommerce": null, "details": null, "type": "Restaurant" }, "geometry": { "type": "Point", "coordinates": [ -73.6114308, 45.4728486 ] } },
{ "type": "Feature", "properties": { "id": 626, "name": "Schwartz's Deli", "address": "3895 Boulevard Saint-Laurent, Montréal", "city": "Montréal", "description": null, "facebook_url": "https:\/\/www.facebook.com\/pages\/Schwartzs\/107996412554365", "twitter_url": null, "instagram_url": null, "website": "https:\/\/schwartzsdeli.com\/index.php?route=common\/home", "hours": "Heures d'ouverture réduites", "pickup": null, "phone": "(514) 842-4813", "where": "Physique", "Latitude": 45.5159784, "Longitude": -73.5772375, "ecommerce": null, "details": null, "type": "Restaurant" }, "geometry": { "type": "Point", "coordinates": [ -73.5772375, 45.515978399999987 ] } },
{ "type": "Feature", "properties": { "id": 627, "name": "Restaurant Beau Mont", "address": "950 Avenue Beaumont, Montréal", "city": "Montréal", "description": null, "facebook_url": "https:\/\/www.facebook.com\/beaumontrestaurant\/", "twitter_url": null, "instagram_url": null, "website": "https:\/\/www.restaurant-beaumont.com\/fr", "hours": "Heures d'ouverture réduites", "pickup": null, "phone": "(514) 270-8882", "where": "Physique", "Latitude": 45.5253745, "Longitude": -73.6214554, "ecommerce": null, "details": null, "type": "Restaurant" }, "geometry": { "type": "Point", "coordinates": [ -73.6214554, 45.5253745 ] } },
{ "type": "Feature", "properties": { "id": 798, "name": "Miljours Studio", "address": "426 Rue Beaubien Est, Montréal", "city": "Montréal", "description": null, "facebook_url": "facebook.com\/miljours.studio", "twitter_url": null, "instagram_url": "instagram.com\/miljours.studio", "website": "https:\/\/miljours.studio\/", "hours": "Temporairement fermé", "pickup": null, "phone": "(514) 317-6214", "where": "Physique et ecommerce", "Latitude": 45.5343969, "Longitude": -73.6046104, "ecommerce": "Opérationnel", "details": "Livraison 24h à 48h", "type": "Magasins & Boutiques" }, "geometry": { "type": "Point", "coordinates": [ -73.6046104, 45.5343969 ] } },
{ "type": "Feature", "properties": { "id": 799, "name": "Lambert", "address": "228 Rue Saint-Jacques, Montréal", "city": "Montréal", "description": null, "facebook_url": "https:\/\/www.facebook.com\/Lambertbags", "twitter_url": null, "instagram_url": "https:\/\/www.instagram.com\/lambertbags\/", "website": "http:\/\/www.designlambert.com\/", "hours": "Temporairement fermé", "pickup": null, "phone": "(514) 823-3293", "where": "Physique et ecommerce", "Latitude": 45.5037227, "Longitude": -73.5585362, "ecommerce": "Opérationnel", "details": "Livraison 3 à 10 jours", "type": "Magasins & Boutiques" }, "geometry": { "type": "Point", "coordinates": [ -73.5585362, 45.5037227 ] } },
{ "type": "Feature", "properties": { "id": 800, "name": "La Petite Ferme du Mouton Noir", "address": "2374 Rue Beaubien Est, Montréal", "city": "Montréal", "description": null, "facebook_url": "https:\/\/www.facebook.com\/lapetitefermedumoutonnoir", "twitter_url": null, "instagram_url": "https:\/\/www.instagram.com\/lapetitefermedumoutonnoir\/", "website": "http:\/\/www.creationsmoutonnoir.com\/", "hours": "Temporairement fermé", "pickup": null, "phone": "(514) 271-9760", "where": "Physique et ecommerce", "Latitude": 45.5482821, "Longitude": -73.5921585, "ecommerce": "Opérationnel", "details": "Livraison 2 à 3 jours", "type": "Magasins & Boutiques" }, "geometry": { "type": "Point", "coordinates": [ -73.5921585, 45.548282099999987 ] } },
{ "type": "Feature", "properties": { "id": 801, "name": "La petite garçonne", "address": "3650 Boulevard Saint-Laurent, Montréal", "city": "Montréal", "description": null, "facebook_url": "https:\/\/www.facebook.com\/boutique1861", "twitter_url": null, "instagram_url": "https:\/\/www.instagram.com\/boutique1861\/", "website": "https:\/\/1861.ca\/collections\/lapetitegarconne", "hours": "Temporairement fermé", "pickup": null, "phone": "(514) 507-7112", "where": "Physique et ecommerce", "Latitude": 45.5142635, "Longitude": -73.5733352, "ecommerce": "Opérationnel", "details": "Livraison 3 à 10 jours", "type": "Magasins & Boutiques" }, "geometry": { "type": "Point", "coordinates": [ -73.5733352, 45.5142635 ] } },
{ "type": "Feature", "properties": { "id": 802, "name": "La Rama Records", "address": "77 Rue Bernard Ouest, Montréal", "city": "Montréal", "description": null, "facebook_url": null, "twitter_url": null, "instagram_url": null, "website": "https:\/\/www.facebook.com\/laramarecords\/", "hours": "Temporairement fermé", "pickup": null, "phone": "(514) 769-2966", "where": "Physique et ecommerce", "Latitude": 45.5263485, "Longitude": -73.6031015, "ecommerce": "Opérationnel", "details": "Livraison 2 à 3 jours", "type": "Magasins & Boutiques" }, "geometry": { "type": "Point", "coordinates": [ -73.6031015, 45.5263485 ] } },
{ "type": "Feature", "properties": { "id": 804, "name": "Bijouterie Myel design", "address": "207 Avenue Laurier Ouest, Montréal", "city": "Montréal", "description": null, "facebook_url": "https:\/\/www.facebook.com\/myeldesign\/", "twitter_url": null, "instagram_url": "https:\/\/www.instagram.com\/myeldesign\/", "website": "http:\/\/myeldesign.com\/", "hours": "Temporairement fermé", "pickup": null, "phone": "(438) 384-6935", "where": "Physique et ecommerce", "Latitude": 45.5210325, "Longitude": -73.5946916, "ecommerce": "Opérationnel", "details": "Livraison 3 à 10 jours", "type": "Magasins & Boutiques" }, "geometry": { "type": "Point", "coordinates": [ -73.5946916, 45.5210325 ] } },
{ "type": "Feature", "properties": { "id": 805, "name": "MYLENEB", "address": "5259 Boulevard Saint-Laurent, Montréal", "city": "Montréal", "description": null, "facebook_url": "https:\/\/www.facebook.com\/mylenebmtl\/", "twitter_url": null, "instagram_url": "https:\/\/www.instagram.com\/myleneb_mtl\/", "website": "http:\/\/myleneb.com\/", "hours": "Temporairement fermé", "pickup": null, "phone": "(514) 384-8583", "where": "Physique et ecommerce", "Latitude": 45.5241038, "Longitude": -73.5951356, "ecommerce": "Opérationnel", "details": "Livraison 3 à 10 jours", "type": "Magasins & Boutiques" }, "geometry": { "type": "Point", "coordinates": [ -73.5951356, 45.5241038 ] } },
{ "type": "Feature", "properties": { "id": 806, "name": "Atelier New Regime", "address": "4632 Rue Notre-Dame Ouest, Montréal", "city": "Montréal", "description": null, "facebook_url": "https:\/\/www.facebook.com\/ateliernewregime", "twitter_url": null, "instagram_url": "https:\/\/www.instagram.com\/ateliernewregime", "website": "http:\/\/www.ateliernewregime.com\/", "hours": "Temporairement fermé", "pickup": null, "phone": "(514) 903-7477", "where": "Physique et ecommerce", "Latitude": 45.4732082, "Longitude": -73.5883577, "ecommerce": "Opérationnel", "details": "Livraison 3 à 10 jours", "type": "Magasins & Boutiques" }, "geometry": { "type": "Point", "coordinates": [ -73.5883577, 45.4732082 ] } },
{ "type": "Feature", "properties": { "id": 811, "name": "Ursa Minor Studio", "address": "6545 Durocher, Montréal", "city": "Montréal", "description": null, "facebook_url": "https:\/\/www.facebook.com\/ursaminorstudiomtl\/", "twitter_url": null, "instagram_url": "https:\/\/www.instagram.com\/ursaminorstudio\/", "website": "http:\/\/www.ursaminorstudio.com\/", "hours": "Temporairement fermé", "pickup": null, "phone": null, "where": "Physique et ecommerce", "Latitude": 45.5266525, "Longitude": -73.6165195, "ecommerce": "Opérationnel", "details": "Livraison 3 à 10 jours", "type": "Magasins & Boutiques" }, "geometry": { "type": "Point", "coordinates": [ -73.6165195, 45.5266525 ] } },
{ "type": "Feature", "properties": { "id": 816, "name": "Nil Apparel", "address": "1625 Rue Chabanel Ouest, Montréal", "city": "Montréal", "description": null, "facebook_url": "https:\/\/www.facebook.com\/nilapparel.mtl\/", "twitter_url": null, "instagram_url": "https:\/\/www.instagram.com\/nil.apparel\/", "website": "http:\/\/nilapparel.com\/", "hours": "Temporairement fermé", "pickup": null, "phone": "(514) 992-6278", "where": "Physique et ecommerce", "Latitude": 45.5301828, "Longitude": -73.6590644, "ecommerce": "Opérationnel", "details": "Livraison 2 à 3 jours", "type": "Magasins & Boutiques" }, "geometry": { "type": "Point", "coordinates": [ -73.6590644, 45.5301828 ] } },
{ "type": "Feature", "properties": { "id": 818, "name": "Atelier Melow par Melissa Bolduc", "address": ", Montréal", "city": "Montréal", "description": null, "facebook_url": "https:\/\/www.facebook.com\/melowparmelissabolduc\/", "twitter_url": null, "instagram_url": "https:\/\/www.instagram.com\/melow_par_melissa_bolduc\/?hl=en", "website": "https:\/\/www.melowparmelissabolduc.com\/", "hours": "Temporairement fermé", "pickup": null, "phone": "(514) 523-6169", "where": "Physique et ecommerce", "Latitude": 45.5427431, "Longitude": -73.581887, "ecommerce": "Opérationnel", "details": "Livraison 3 à 10 jours", "type": "Magasins & Boutiques" }, "geometry": { "type": "Point", "coordinates": [ -73.581887, 45.5427431 ] } },
{ "type": "Feature", "properties": { "id": 839, "name": "Näak", "address": "320-9320 Boulevard Saint-Laurent, Montréal", "city": "Montréal", "description": null, "facebook_url": "https:\/\/www.facebook.com\/naakbar\/", "twitter_url": null, "instagram_url": null, "website": "https:\/\/naakbar.com\/", "hours": null, "pickup": null, "phone": null, "where": "Ecommerce seulement", "Latitude": 45.5446254, "Longitude": -73.6517142, "ecommerce": "Opérationnel", "details": "Livraison 3 à 10 jours", "type": "Alimentation" }, "geometry": { "type": "Point", "coordinates": [ -73.6517142, 45.5446254 ] } },
{ "type": "Feature", "properties": { "id": 1020, "name": "Salon de thé Camellia Sinensis", "address": "351 Rue Émery, Montréal", "city": "Montréal", "description": null, "facebook_url": "https:\/\/www.facebook.com\/CamelliaSinensis.T", "twitter_url": "https:\/\/twitter.com\/CamSinTeahouse", "instagram_url": "https:\/\/www.instagram.com\/camellia.sinensis\/", "website": "http:\/\/www.camellia-sinensis.com\/", "hours": "Heures d'ouverture réduites", "pickup": null, "phone": "(514) 286-4002", "where": "Physique et ecommerce", "Latitude": 45.5147935, "Longitude": -73.5634687, "ecommerce": "Opérationnel", "details": "Livraison 3 à 10 jours,Livraison locale 2h", "type": "Café & Thé" }, "geometry": { "type": "Point", "coordinates": [ -73.5634687, 45.5147935 ] } },
{ "type": "Feature", "properties": { "id": 1072, "name": "Lester's Deli", "address": "1057 Avenue Bernard, Montréal", "city": "Montréal", "description": null, "facebook_url": "https:\/\/www.facebook.com\/lestersdeli\/", "twitter_url": null, "instagram_url": null, "website": "http:\/\/www.lestersdeli.com\/", "hours": "Heures d'ouverture réduites", "pickup": null, "phone": "(514) 213-1313", "where": "Physique et ecommerce", "Latitude": 45.5220094, "Longitude": -73.6070328, "ecommerce": "Opérationnel", "details": null, "type": "Restaurant" }, "geometry": { "type": "Point", "coordinates": [ -73.6070328, 45.522009399999988 ] } },
{ "type": "Feature", "properties": { "id": 1073, "name": "Mate Libre", "address": "5333 Avenue Casgrain, Montréal", "city": "Montréal", "description": null, "facebook_url": "https:\/\/www.facebook.com\/matelibre\/", "twitter_url": null, "instagram_url": null, "website": "http:\/\/matelibre.com\/", "hours": null, "pickup": null, "phone": "(866) 251-0999", "where": "Ecommerce seulement", "Latitude": 45.5258596, "Longitude": -73.595115, "ecommerce": "Opérationnel", "details": "Livraison 3 à 10 jours,Livraison 2 à 3 jours", "type": "Bières & Vins" }, "geometry": { "type": "Point", "coordinates": [ -73.595115, 45.5258596 ] } },
{ "type": "Feature", "properties": { "id": 1077, "name": "Mimi & August", "address": "110 Rue McGill, Montréal", "city": "Montréal", "description": null, "facebook_url": "https:\/\/www.facebook.com\/Mimiandaugust\/?ref=br_rs", "twitter_url": null, "instagram_url": null, "website": "https:\/\/mimiandaugust.com\/", "hours": null, "pickup": null, "phone": "(438) 384-1264", "where": "Ecommerce seulement", "Latitude": 45.4996463, "Longitude": -73.5555875, "ecommerce": "Opérationnel", "details": "Livraison 3 à 10 jours", "type": "Magasins & Boutiques" }, "geometry": { "type": "Point", "coordinates": [ -73.5555875, 45.499646299999988 ] } },
{ "type": "Feature", "properties": { "id": 1081, "name": "Marché Traditions Main (Montréal)", "address": "3695 Boulevard Saint-Laurent, Montréal", "city": "Montréal", "description": null, "facebook_url": "https:\/\/www.facebook.com\/MarchesTradition\/", "twitter_url": null, "instagram_url": null, "website": "https:\/\/www.marchestradition.com\/", "hours": "Heures d'ouverture réduites", "pickup": null, "phone": "(514) 565-3301", "where": "Physique", "Latitude": 45.5146901, "Longitude": -73.5742452, "ecommerce": null, "details": null, "type": "Alimentation" }, "geometry": { "type": "Point", "coordinates": [ -73.5742452, 45.5146901 ] } },
{ "type": "Feature", "properties": { "id": 1083, "name": "Nina.Nanas Bijoux", "address": "5795 Avenue de Gaspé, Montréal", "city": "Montréal", "description": null, "facebook_url": "https:\/\/www.facebook.com\/NinaNanasJewelry\/", "twitter_url": null, "instagram_url": null, "website": "https:\/\/www.ninananas.com\/", "hours": null, "pickup": null, "phone": null, "where": "Ecommerce seulement", "Latitude": 45.5284253, "Longitude": -73.5991557, "ecommerce": "Opérationnel", "details": "Livraison 3 à 10 jours", "type": "Magasins & Boutiques" }, "geometry": { "type": "Point", "coordinates": [ -73.599155700000011, 45.528425299999988 ] } },
{ "type": "Feature", "properties": { "id": 1089, "name": "ORA-C jewelry", "address": "7080 Rue Alexandra, Montréal", "city": "Montréal", "description": null, "facebook_url": "https:\/\/www.facebook.com\/oracjewelry\/", "twitter_url": null, "instagram_url": null, "website": "http:\/\/www.ora-c.com\/", "hours": null, "pickup": null, "phone": null, "where": "Ecommerce seulement", "Latitude": 45.5323269, "Longitude": -73.6201908, "ecommerce": "Opérationnel", "details": "Livraison 3 à 10 jours", "type": "Magasins & Boutiques" }, "geometry": { "type": "Point", "coordinates": [ -73.6201908, 45.5323269 ] } },
{ "type": "Feature", "properties": { "id": 1096, "name": "Poches & Fils", "address": "2055 Rue Parthenais, Montréal", "city": "Montréal", "description": null, "facebook_url": "https:\/\/www.facebook.com\/search\/top\/?q=Poches%20et%20fils&epa=SEARCH_BOX", "twitter_url": null, "instagram_url": null, "website": "http:\/\/pochesetfils.com\/", "hours": null, "pickup": null, "phone": null, "where": "Ecommerce seulement", "Latitude": 45.529677, "Longitude": -73.5565833, "ecommerce": "Opérationnel", "details": "Livraison 3 à 10 jours", "type": "Magasins & Boutiques" }, "geometry": { "type": "Point", "coordinates": [ -73.5565833, 45.529677 ] } },
{ "type": "Feature", "properties": { "id": 1097, "name": "Boulangerie Première Moisson - De la Gauchetière", "address": "895 Rue De La Gauchetière Ouest, Montréal", "city": "Montréal", "description": null, "facebook_url": "https:\/\/www.facebook.com\/premieremoisson", "twitter_url": null, "instagram_url": null, "website": "http:\/\/www.premieremoisson.com\/", "hours": "Heures d'ouverture réduites", "pickup": null, "phone": "(514) 393-1247", "where": "Physique et ecommerce", "Latitude": 45.4996006, "Longitude": -73.5661836, "ecommerce": "Opérationnel", "details": null, "type": "Boulangerie & pâtisserie" }, "geometry": { "type": "Point", "coordinates": [ -73.5661836, 45.4996006 ] } },
{ "type": "Feature", "properties": { "id": 1099, "name": "Sabor Latino 2", "address": "4387 Boulevard Saint-Laurent, Montréal", "city": "Montréal", "description": null, "facebook_url": "https:\/\/www.facebook.com\/2SaborLatino\/", "twitter_url": null, "instagram_url": null, "website": "http:\/\/www.saborlatino.ca\/", "hours": "Heures d'ouverture réduites", "pickup": "checked", "phone": "(514) 848-1078", "where": "Physique", "Latitude": 45.5190767, "Longitude": -73.5840842, "ecommerce": null, "details": "Cuillette sur place (pour emporter)", "type": "Alimentation" }, "geometry": { "type": "Point", "coordinates": [ -73.5840842, 45.5190767 ] } },
{ "type": "Feature", "properties": { "id": 1101, "name": "Zoe Dessert", "address": "2160 Rue Saint Mathieu, Montréal", "city": "Montréal", "description": null, "facebook_url": null, "twitter_url": null, "instagram_url": null, "website": "https:\/\/www.facebook.com\/zoedessertetthe", "hours": "Heures d'ouverture réduites", "pickup": "checked", "phone": "(514) 379-6606", "where": "Physique", "Latitude": 45.4946849, "Longitude": -73.5807768, "ecommerce": null, "details": "Cuillette sur place (pour emporter)", "type": "Magasins & Boutiques" }, "geometry": { "type": "Point", "coordinates": [ -73.5807768, 45.4946849 ] } },
{ "type": "Feature", "properties": { "id": 1103, "name": "Rudsak (rue Sainte-Catherine)", "address": "1400 Rue Sainte-Catherine Ouest,", "city": null, "description": null, "facebook_url": "https:\/\/www.facebook.com\/RUDSAK\/", "twitter_url": null, "instagram_url": null, "website": "https:\/\/www.rudsak.com", "hours": null, "pickup": null, "phone": null, "where": "Physique et ecommerce", "Latitude": 45.496733, "Longitude": -73.5761831, "ecommerce": "Opérationnel", "details": "Livraison 3 à 10 jours", "type": "Magasins & Boutiques" }, "geometry": { "type": "Point", "coordinates": [ -73.5761831, 45.496733 ] } },
{ "type": "Feature", "properties": { "id": 1104, "name": "La Licornerie Inc.", "address": "408 Avenue du Mont-Royal Est, Montréal", "city": "Montréal", "description": null, "facebook_url": "https:\/\/www.facebook.com\/licornerie?_ga=2.98055455.1430004319.1585771482-702708788.1585771482", "twitter_url": null, "instagram_url": null, "website": "http:\/\/www.lalicornerie.ca\/", "hours": "Temporairement fermé", "pickup": null, "phone": "(514) 543-7311", "where": "Physique et ecommerce", "Latitude": 45.5245342, "Longitude": -73.5824327, "ecommerce": "Opérationnel", "details": "Livraison 2 à 3 jours,Livraison 3 à 10 jours", "type": "Magasins & Boutiques" }, "geometry": { "type": "Point", "coordinates": [ -73.5824327, 45.5245342 ] } },
{ "type": "Feature", "properties": { "id": 1106, "name": "Le Trunkshop", "address": "263 Avenue du Mont-Royal Est, Montréal", "city": "Montréal", "description": null, "facebook_url": "https:\/\/www.facebook.com\/letrunkshop\/", "twitter_url": null, "instagram_url": null, "website": "http:\/\/www.letrunkshop.com\/", "hours": "Temporairement fermé", "pickup": null, "phone": "(514) 303-1630", "where": "Physique et ecommerce", "Latitude": 45.5227804, "Longitude": -73.5839463, "ecommerce": "Opérationnel", "details": "Livraison 2 à 3 jours,Livraison 3 à 10 jours", "type": "Magasins & Boutiques" }, "geometry": { "type": "Point", "coordinates": [ -73.5839463, 45.522780399999988 ] } },
{ "type": "Feature", "properties": { "id": 1111, "name": "Sokoloff Lingerie", "address": "9500 Rue Meilleur, Montréal", "city": "Montréal", "description": null, "facebook_url": "https:\/\/www.facebook.com\/SokoloffL\/", "twitter_url": null, "instagram_url": null, "website": "http:\/\/sokolofflingerie.com\/", "hours": null, "pickup": null, "phone": null, "where": "Ecommerce seulement", "Latitude": 45.5395616, "Longitude": -73.6621805, "ecommerce": "Opérationnel", "details": "Livraison 3 à 10 jours", "type": "Magasins & Boutiques" }, "geometry": { "type": "Point", "coordinates": [ -73.6621805, 45.5395616 ] } },
{ "type": "Feature", "properties": { "id": 1113, "name": "Solios Watches", "address": "1600 Rue Notre-Dame Ouest, Montréal", "city": "Montréal", "description": null, "facebook_url": "https:\/\/www.facebook.com\/solios\/", "twitter_url": null, "instagram_url": null, "website": "http:\/\/www.solioswatches.com\/", "hours": null, "pickup": null, "phone": "(833) 376-5467", "where": "Ecommerce seulement", "Latitude": 45.4892479, "Longitude": -73.5679581, "ecommerce": "Opérationnel", "details": "Livraison 3 à 10 jours", "type": "Magasins & Boutiques" }, "geometry": { "type": "Point", "coordinates": [ -73.5679581, 45.4892479 ] } },
{ "type": "Feature", "properties": { "id": 1114, "name": "Boutique 1101 : cuisine et ateliers", "address": "152 Avenue Laurier Ouest, Montréal", "city": "Montréal", "description": null, "facebook_url": "https:\/\/www.facebook.com\/lestouilleurs\/", "twitter_url": null, "instagram_url": null, "website": "https:\/\/www.boutique1101.com\/", "hours": "Temporairement fermé", "pickup": null, "phone": "(514) 278-0008", "where": "Physique et ecommerce", "Latitude": 45.5209869, "Longitude": -73.5945808, "ecommerce": "Opérationnel", "details": "Livraison 3 à 10 jours,Livraison 2 à 3 jours", "type": "Magasins & Boutiques" }, "geometry": { "type": "Point", "coordinates": [ -73.5945808, 45.5209869 ] } },
{ "type": "Feature", "properties": { "id": 1117, "name": "Café Saint Henri", "address": "3632 Rue Notre-Dame Ouest, Montréal", "city": "Montréal", "description": null, "facebook_url": "https:\/\/www.facebook.com\/cafesainthenri.qg\/", "twitter_url": null, "instagram_url": null, "website": "http:\/\/www.sainthenri.ca\/", "hours": null, "pickup": null, "phone": "(514) 507-9696", "where": "Ecommerce seulement", "Latitude": 45.4795958, "Longitude": -73.5809879, "ecommerce": "Opérationnel", "details": "Livraison 3 à 10 jours", "type": "Café & Thé" }, "geometry": { "type": "Point", "coordinates": [ -73.5809879, 45.4795958 ] } },
{ "type": "Feature", "properties": { "id": 1118, "name": "Librairie Le port de tête", "address": "269 Avenue du Mont-Royal Est, Montréal", "city": "Montréal", "description": null, "facebook_url": "https:\/\/www.facebook.com\/LibrairieLePortdetete", "twitter_url": null, "instagram_url": null, "website": "https:\/\/www.leslibraires.ca\/", "hours": "Temporairement fermé", "pickup": null, "phone": "(514) 678-9566", "where": "Physique et ecommerce", "Latitude": 45.5227804, "Longitude": -73.5839463, "ecommerce": "Opérationnel", "details": "Livraison 3 à 10 jours,Livraison 2 à 3 jours", "type": "Librairie" }, "geometry": { "type": "Point", "coordinates": [ -73.5839463, 45.522780399999988 ] } },
{ "type": "Feature", "properties": { "id": 1121, "name": "Boutique LOWELL", "address": "5298 Boulevard Saint-Laurent, Montréal", "city": "Montréal", "description": null, "facebook_url": "https:\/\/www.facebook.com\/LowellMtl\/", "twitter_url": null, "instagram_url": null, "website": "https:\/\/www.lowellmtl.ca\/", "hours": "Temporairement fermé", "pickup": null, "phone": "(514) 544-6518", "where": "Physique et ecommerce", "Latitude": 45.5258425, "Longitude": -73.5989403, "ecommerce": "Opérationnel", "details": "Livraison 2 à 3 jours,Livraison 3 à 10 jours", "type": "Magasins & Boutiques" }, "geometry": { "type": "Point", "coordinates": [ -73.59894030000001, 45.5258425 ] } },
{ "type": "Feature", "properties": { "id": 1122, "name": "m0851 (boul. St-Laurent)", "address": "3526 Boulevard Saint-Laurent, Montréal", "city": "Montréal", "description": null, "facebook_url": "https:\/\/www.facebook.com\/m0851\/", "twitter_url": null, "instagram_url": null, "website": "https:\/\/www.m0851.com\/", "hours": "Temporairement fermé", "pickup": null, "phone": "(514) 849-9759", "where": "Physique et ecommerce", "Latitude": 45.5134168, "Longitude": -73.5714663, "ecommerce": "Opérationnel", "details": "Livraison 2 à 3 jours,Livraison 3 à 10 jours", "type": "Magasins & Boutiques" }, "geometry": { "type": "Point", "coordinates": [ -73.5714663, 45.513416799999987 ] } },
{ "type": "Feature", "properties": { "id": 1123, "name": "Maison Marie Saint Pierre Boutique", "address": "2305 Chemin Rockland, Mont-Royal", "city": "Mont-Royal", "description": null, "facebook_url": "https:\/\/www.facebook.com\/pages\/Marie-Saint-Pierre\/44229457031", "twitter_url": null, "instagram_url": null, "website": "http:\/\/www.mariesaintpierre.com\/", "hours": "Temporairement fermé", "pickup": null, "phone": "(514) 738-5547", "where": "Physique et ecommerce", "Latitude": 45.5263695, "Longitude": -73.6475976, "ecommerce": "Opérationnel", "details": "Livraison 3 à 10 jours", "type": "Magasins & Boutiques" }, "geometry": { "type": "Point", "coordinates": [ -73.6475976, 45.5263695 ] } },
{ "type": "Feature", "properties": { "id": 1124, "name": "Maguire Boutique", "address": "5365 Boulevard Saint-Laurent, Montréal", "city": "Montréal", "description": null, "facebook_url": "https:\/\/www.facebook.com\/maguireboutique\/", "twitter_url": null, "instagram_url": null, "website": "http:\/\/www.maguireboutique.com\/", "hours": "Temporairement fermé", "pickup": null, "phone": "(514) 809-5059", "where": "Physique et ecommerce", "Latitude": 45.5249784, "Longitude": -73.5970529, "ecommerce": "Opérationnel", "details": "Livraison 3 à 10 jours", "type": "Magasins & Boutiques" }, "geometry": { "type": "Point", "coordinates": [ -73.5970529, 45.5249784 ] } },
{ "type": "Feature", "properties": { "id": 1125, "name": "Dubois meubles", "address": "4461 Boulevard Saint-Laurent, Montréal", "city": "Montréal", "description": null, "facebook_url": "https:\/\/www.facebook.com\/duboismeubles\/", "twitter_url": null, "instagram_url": null, "website": "http:\/\/www.duboismeubles.com\/", "hours": "Temporairement fermé", "pickup": null, "phone": "(438) 387-7755", "where": "Physique et ecommerce", "Latitude": 45.5190767, "Longitude": -73.5840842, "ecommerce": "Opérationnel", "details": "Livraison 3 à 10 jours", "type": "Magasins & Boutiques" }, "geometry": { "type": "Point", "coordinates": [ -73.5840842, 45.5190767 ] } },
{ "type": "Feature", "properties": { "id": 1128, "name": "The Unscented Company", "address": "5530 Rue Saint-Patrick, Montréal", "city": "Montréal", "description": null, "facebook_url": "https:\/\/www.facebook.com\/TheUnscentedCompany\/", "twitter_url": null, "instagram_url": null, "website": "http:\/\/unscentedco.com\/", "hours": null, "pickup": null, "phone": "(855) 933-1555", "where": "Ecommerce seulement", "Latitude": 45.4636475, "Longitude": -73.5965527, "ecommerce": "Opérationnel", "details": "Livraison 3 à 10 jours", "type": "Magasins & Boutiques" }, "geometry": { "type": "Point", "coordinates": [ -73.5965527, 45.4636475 ] } },
{ "type": "Feature", "properties": { "id": 1129, "name": "Off The Hook (Centre-Ville)", "address": "1021 Ste Catherine Ouest, Montréal", "city": "Montréal", "description": null, "facebook_url": "https:\/\/www.facebook.com\/OffTheHookMtl", "twitter_url": null, "instagram_url": null, "website": "http:\/\/www.offthehook.ca\/", "hours": "Temporairement fermé", "pickup": null, "phone": "(514) 499-1021", "where": "Physique et ecommerce", "Latitude": 45.5003894, "Longitude": -73.5725485, "ecommerce": "Opérationnel", "details": "Livraison 3 à 10 jours", "type": "Magasins & Boutiques" }, "geometry": { "type": "Point", "coordinates": [ -73.5725485, 45.5003894 ] } },
{ "type": "Feature", "properties": { "id": 1131, "name": "Ojeux", "address": "1278 Avenue du Mont-Royal Est, Montréal", "city": "Montréal", "description": null, "facebook_url": "https:\/\/www.facebook.com\/ojeuxmontroyal\/?_ga=2.85971344.80940559.1585772887-356032420.1585772887", "twitter_url": null, "instagram_url": null, "website": "https:\/\/ojeux.ca\/boutique", "hours": "Temporairement fermé", "pickup": null, "phone": "(514) 524-3444", "where": "Physique et ecommerce", "Latitude": 45.5294941, "Longitude": -73.5778434, "ecommerce": "Opérationnel", "details": "Livraison 3 à 10 jours", "type": "Magasins & Boutiques" }, "geometry": { "type": "Point", "coordinates": [ -73.5778434, 45.5294941 ] } },
{ "type": "Feature", "properties": { "id": 1135, "name": "Onze Montréal", "address": "1126 Avenue du Mont-Royal Est, Montréal", "city": "Montréal", "description": null, "facebook_url": "https:\/\/www.facebook.com\/OnzeMontreal\/", "twitter_url": null, "instagram_url": null, "website": "https:\/\/onze-montreal.com\/", "hours": "Temporairement fermé", "pickup": null, "phone": "(514) 903-3559", "where": "Physique et ecommerce", "Latitude": 45.5284321, "Longitude": -73.5788397, "ecommerce": "Opérationnel", "details": "Livraison 3 à 10 jours", "type": "Magasins & Boutiques" }, "geometry": { "type": "Point", "coordinates": [ -73.5788397, 45.5284321 ] } },
{ "type": "Feature", "properties": { "id": 1137, "name": "Oppen's", "address": "4828 St Lawrence, Montréal", "city": "Montréal", "description": null, "facebook_url": "https:\/\/www.facebook.com\/boutiqueoppens\/", "twitter_url": null, "instagram_url": null, "website": "http:\/\/www.oppens.ca\/", "hours": "Temporairement fermé", "pickup": null, "phone": "(514) 844-9159", "where": "Physique et ecommerce", "Latitude": 45.5217675, "Longitude": -73.5904767, "ecommerce": "Opérationnel", "details": "Livraison 3 à 10 jours", "type": "Magasins & Boutiques" }, "geometry": { "type": "Point", "coordinates": [ -73.5904767, 45.5217675 ] } },
{ "type": "Feature", "properties": { "id": 1141, "name": "Twenty Compass", "address": "2019 Rue Moreau, Montréal", "city": "Montréal", "description": null, "facebook_url": "https:\/\/www.facebook.com\/twentycompass\/", "twitter_url": null, "instagram_url": null, "website": "https:\/\/twentycompass.com\/", "hours": null, "pickup": null, "phone": null, "where": "Ecommerce seulement", "Latitude": 45.5400256, "Longitude": -73.5497899, "ecommerce": "Opérationnel", "details": "Livraison 3 à 10 jours", "type": "Magasins & Boutiques" }, "geometry": { "type": "Point", "coordinates": [ -73.5497899, 45.5400256 ] } },
{ "type": "Feature", "properties": { "id": 1144, "name": "Pastis Olive", "address": "2050 Rue Dandurand, Montréal", "city": "Montréal", "description": null, "facebook_url": "https:\/\/www.facebook.com\/pastisolivedesign\/", "twitter_url": null, "instagram_url": null, "website": "http:\/\/www.pastisolive.com\/", "hours": "Temporairement fermé", "pickup": null, "phone": "(514) 430-4768", "where": "Physique et ecommerce", "Latitude": 45.5401051, "Longitude": -73.5849607, "ecommerce": "Opérationnel", "details": "Livraison 3 à 10 jours", "type": "Magasins & Boutiques" }, "geometry": { "type": "Point", "coordinates": [ -73.5849607, 45.5401051 ] } },
{ "type": "Feature", "properties": { "id": 1146, "name": "Boutique Station Service", "address": "72 Rue Rachel Est, Montréal", "city": "Montréal", "description": null, "facebook_url": "https:\/\/www.facebook.com\/stationserviceboutique\/", "twitter_url": null, "instagram_url": null, "website": "http:\/\/stationservice.co\/", "hours": "Temporairement fermé", "pickup": null, "phone": "(514) 543-3727", "where": "Physique et ecommerce", "Latitude": 45.5186896, "Longitude": -73.5811003, "ecommerce": "Opérationnel", "details": "Livraison 3 à 10 jours", "type": "Magasins & Boutiques" }, "geometry": { "type": "Point", "coordinates": [ -73.5811003, 45.518689599999988 ] } },
{ "type": "Feature", "properties": { "id": 1149, "name": "Station W café - Verdun", "address": "3852 Rue Wellington, Montréal", "city": "Montréal", "description": null, "facebook_url": null, "twitter_url": null, "instagram_url": "https:\/\/www.instagram.com\/station_w_cafe\/", "website": "http:\/\/www.station-w.com\/", "hours": "Temporairement fermé", "pickup": null, "phone": "(514) 508-9768", "where": "Physique et ecommerce", "Latitude": 45.4664013, "Longitude": -73.5666841, "ecommerce": "Opérationnel", "details": null, "type": "Café & Thé" }, "geometry": { "type": "Point", "coordinates": [ -73.5666841, 45.4664013 ] } },
{ "type": "Feature", "properties": { "id": 1150, "name": "T. Lees", "address": "3700 Rue Saint-Patrick, Montréal", "city": "Montréal", "description": null, "facebook_url": "https:\/\/www.facebook.com\/tlees.co\/", "twitter_url": null, "instagram_url": null, "website": "http:\/\/tlees.co\/", "hours": "Temporairement fermé", "pickup": null, "phone": "(438) 383-5013", "where": "Physique et ecommerce", "Latitude": 45.4719619, "Longitude": -73.5796767, "ecommerce": "Opérationnel", "details": "Livraison 3 à 10 jours", "type": "Magasins & Boutiques" }, "geometry": { "type": "Point", "coordinates": [ -73.5796767, 45.4719619 ] } },
{ "type": "Feature", "properties": { "id": 1153, "name": "Ciele Athletics", "address": "103-2215 Avenue Beaconsfield, Montréal", "city": "Montréal", "description": null, "facebook_url": "https:\/\/www.facebook.com\/cieleathletics", "twitter_url": null, "instagram_url": null, "website": "https:\/\/cieleathletics.com\/", "hours": null, "pickup": null, "phone": "(514) 907-2851", "where": "Ecommerce seulement", "Latitude": 45.4658904, "Longitude": -73.6191901, "ecommerce": "Opérationnel", "details": "Livraison 3 à 10 jours", "type": "Magasins & Boutiques" }, "geometry": { "type": "Point", "coordinates": [ -73.6191901, 45.4658904 ] } },
{ "type": "Feature", "properties": { "id": 1166, "name": "Michel Brison", "address": "1074 Avenue Laurier Ouest, Montréal", "city": "Montréal", "description": null, "facebook_url": "https:\/\/www.facebook.com\/BoutiqueMichelBrisson", "twitter_url": null, "instagram_url": null, "website": "http:\/\/www.michelbrisson.com\/", "hours": "Temporairement fermé", "pickup": null, "phone": "(514) 270-1012", "where": "Physique et ecommerce", "Latitude": 45.5180804, "Longitude": -73.5972469, "ecommerce": "Opérationnel", "details": "Livraison 3 à 10 jours", "type": "Magasins & Boutiques" }, "geometry": { "type": "Point", "coordinates": [ -73.597246900000016, 45.5180804 ] } },
{ "type": "Feature", "properties": { "id": 1167, "name": "Randolph", "address": "2041 Rue Saint-Denis, Randolph", "city": "Randolph", "description": null, "facebook_url": "https:\/\/www.facebook.com\/randolphmontreal\/", "twitter_url": null, "instagram_url": null, "website": "https:\/\/www.randolph.ca\/", "hours": "Temporairement fermé", "pickup": null, "phone": null, "where": "Physique et ecommerce", "Latitude": 45.5164031, "Longitude": -73.5659481, "ecommerce": "Opérationnel", "details": "Livraison 3 à 10 jours", "type": "Magasins & Boutiques" }, "geometry": { "type": "Point", "coordinates": [ -73.5659481, 45.5164031 ] } },
{ "type": "Feature", "properties": { "id": 1168, "name": "Birks", "address": "1240 Phillips Square, Montreal", "city": "Montreal", "description": null, "facebook_url": "https:\/\/www.facebook.com\/maisonbirks", "twitter_url": null, "instagram_url": null, "website": "https:\/\/www.hotelbirksmontreal.com\/", "hours": "Temporairement fermé", "pickup": null, "phone": "(514) 370-3000", "where": "Physique et ecommerce", "Latitude": 45.5041909, "Longitude": -73.5688404, "ecommerce": "Opérationnel", "details": "Livraison 3 à 10 jours", "type": "Magasins & Boutiques" }, "geometry": { "type": "Point", "coordinates": [ -73.5688404, 45.5041909 ] } },
{ "type": "Feature", "properties": { "id": 1169, "name": "Espace Pepin", "address": "350 Rue Saint-Paul Ouest, Montréal", "city": "Montréal", "description": null, "facebook_url": "https:\/\/www.facebook.com\/thepepinshop\/", "twitter_url": null, "instagram_url": null, "website": "http:\/\/www.thepepinshop.com\/", "hours": "Temporairement fermé", "pickup": null, "phone": "(514) 844-0114", "where": "Physique et ecommerce", "Latitude": 45.5012172, "Longitude": -73.5562252, "ecommerce": "Opérationnel", "details": "Livraison 3 à 10 jours", "type": "Magasins & Boutiques" }, "geometry": { "type": "Point", "coordinates": [ -73.5562252, 45.5012172 ] } },
{ "type": "Feature", "properties": { "id": 1170, "name": "La Maison de l’Aspirateur", "address": "5860 Boulevard Saint-Laurent, Montréal", "city": "Montréal", "description": null, "facebook_url": "https:\/\/www.facebook.com\/MaisonAspirateur\/", "twitter_url": null, "instagram_url": null, "website": "https:\/\/www.maisonaspirateur.com\/", "hours": "Temporairement fermé", "pickup": null, "phone": "(514) 273-2821", "where": "Physique et ecommerce", "Latitude": 45.5277958, "Longitude": -73.6032523, "ecommerce": "Opérationnel", "details": "Livraison 3 à 10 jours", "type": "Magasins & Boutiques" }, "geometry": { "type": "Point", "coordinates": [ -73.6032523, 45.5277958 ] } },
{ "type": "Feature", "properties": { "id": 1172, "name": "État de choc", "address": "6466 Boulevard Saint-Laurent, Montréal", "city": "Montréal", "description": null, "facebook_url": "https:\/\/www.facebook.com\/etatdechocmtl\/", "twitter_url": null, "instagram_url": null, "website": "https:\/\/www.etatdechoc.com\/", "hours": "Temporairement fermé", "pickup": null, "phone": "(514) 657-6466", "where": "Physique et ecommerce", "Latitude": 45.5300897, "Longitude": -73.6082192, "ecommerce": "Opérationnel", "details": "Livraison 3 à 10 jours", "type": "Magasins & Boutiques" }, "geometry": { "type": "Point", "coordinates": [ -73.6082192, 45.5300897 ] } },
{ "type": "Feature", "properties": { "id": 1173, "name": "La Fée Raille + Énamour", "address": "3515 Avenue du Parc, Montréal", "city": "Montréal", "description": null, "facebook_url": "https:\/\/www.facebook.com\/enamourco", "twitter_url": null, "instagram_url": null, "website": "https:\/\/www.facebook.com\/Jouezici\/", "hours": "Temporairement fermé", "pickup": null, "phone": "(438) 476-7536", "where": "Physique et ecommerce", "Latitude": 45.5096883, "Longitude": -73.5740904, "ecommerce": "Opérationnel", "details": "Livraison 3 à 10 jours", "type": "Magasins & Boutiques" }, "geometry": { "type": "Point", "coordinates": [ -73.5740904, 45.5096883 ] } },
{ "type": "Feature", "properties": { "id": 1175, "name": "Dime Skateshop", "address": "3632 Boulevard Saint-Laurent, Montréal", "city": "Montréal", "description": null, "facebook_url": "https:\/\/www.facebook.com\/dimemtl", "twitter_url": null, "instagram_url": null, "website": "http:\/\/dimemtl.com\/", "hours": "Temporairement fermé", "pickup": null, "phone": "(514) 504-9909", "where": "Physique et ecommerce", "Latitude": 45.5142635, "Longitude": -73.5733352, "ecommerce": "Opérationnel", "details": "Livraison 3 à 10 jours", "type": "Magasins & Boutiques" }, "geometry": { "type": "Point", "coordinates": [ -73.5733352, 45.5142635 ] } },
{ "type": "Feature", "properties": { "id": 1176, "name": "Dispatch Coffee", "address": "4021 Boulevard Saint-Laurent, Montréal", "city": "Montréal", "description": null, "facebook_url": "https:\/\/www.facebook.com\/dispatchcoffeemtl\/", "twitter_url": null, "instagram_url": null, "website": "http:\/\/dispatchcoffee.ca\/", "hours": "Temporairement fermé", "pickup": null, "phone": "(514) 504-2351", "where": "Physique et ecommerce", "Latitude": 45.5163369, "Longitude": -73.5779952, "ecommerce": "Opérationnel", "details": "Livraison 3 à 10 jours", "type": "Café & Thé" }, "geometry": { "type": "Point", "coordinates": [ -73.5779952, 45.5163369 ] } },
{ "type": "Feature", "properties": { "id": 1177, "name": "Bref MTL", "address": "261 Rue Bernard Ouest, Montréal", "city": "Montréal", "description": null, "facebook_url": "https:\/\/www.facebook.com\/brefmtl\/", "twitter_url": null, "instagram_url": null, "website": "http:\/\/www.brefmtl.com\/", "hours": "Temporairement fermé", "pickup": null, "phone": "(438) 290-5074", "where": "Physique et ecommerce", "Latitude": 45.5240522, "Longitude": -73.6052262, "ecommerce": "Opérationnel", "details": "Livraison 3 à 10 jours", "type": "Autres" }, "geometry": { "type": "Point", "coordinates": [ -73.6052262, 45.5240522 ] } },
{ "type": "Feature", "properties": { "id": 1179, "name": "BKIND", "address": "3455 Boulevard Saint-Laurent, Montréal", "city": "Montréal", "description": null, "facebook_url": "https:\/\/www.facebook.com\/bkindproducts", "twitter_url": null, "instagram_url": null, "website": "http:\/\/www.bkind.com\/", "hours": "Temporairement fermé", "pickup": null, "phone": "(514) 932-5993", "where": "Physique et ecommerce", "Latitude": 45.5129703, "Longitude": -73.5704868, "ecommerce": "Opérationnel", "details": "Livraison 3 à 10 jours", "type": "Magasins & Boutiques" }, "geometry": { "type": "Point", "coordinates": [ -73.5704868, 45.5129703 ] } },
{ "type": "Feature", "properties": { "id": 1180, "name": "atelier b", "address": "5758 Boulevard Saint-Laurent, Montréal", "city": "Montréal", "description": null, "facebook_url": "https:\/\/www.facebook.com\/atelierbmtl", "twitter_url": null, "instagram_url": null, "website": "http:\/\/www.atelier-b.ca\/", "hours": "Temporairement fermé", "pickup": null, "phone": "(514) 769-6094", "where": "Physique et ecommerce", "Latitude": 45.526086, "Longitude": -73.5994562, "ecommerce": "Opérationnel", "details": "Livraison 3 à 10 jours", "type": "Magasins & Boutiques" }, "geometry": { "type": "Point", "coordinates": [ -73.5994562, 45.526086 ] } },
{ "type": "Feature", "properties": { "id": 1214, "name": "Les Aliments Merci", "address": "4445 Rue Ontario Est, Montréal", "city": "Montréal", "description": null, "facebook_url": "https:\/\/www.facebook.com\/AlimentsMerci\/", "twitter_url": null, "instagram_url": null, "website": "https:\/\/alimentsmerci.com\/", "hours": "Heures d'ouverture réduites", "pickup": "checked", "phone": "(514) 899-1066", "where": "Physique et ecommerce", "Latitude": 45.5537136, "Longitude": -73.5390115, "ecommerce": "Opérationnel", "details": "Cuillette sur place (pour emporter),Livraison 24h à 48h,Livraison 2 à 3 jours", "type": "Alimentation" }, "geometry": { "type": "Point", "coordinates": [ -73.5390115, 45.553713599999988 ] } },
{ "type": "Feature", "properties": { "id": 1222, "name": "Curieux de nature (anciennement: Panier Santé Fleury)", "address": "1332 Rue Fleury Est, Montréal", "city": "Montréal", "description": null, "facebook_url": "https:\/\/www.facebook.com\/Curieux.ca\/", "twitter_url": null, "instagram_url": null, "website": "http:\/\/www.curieux.ca\/", "hours": "Heures d'ouverture prolongées", "pickup": "checked", "phone": "(514) 388-5793", "where": "Physique", "Latitude": 45.5597394, "Longitude": -73.6581871, "ecommerce": null, "details": "Cuillette sur place (pour emporter)", "type": "Alimentation" }, "geometry": { "type": "Point", "coordinates": [ -73.6581871, 45.5597394 ] } },
{ "type": "Feature", "properties": { "id": 1225, "name": "Épicerie Conserva", "address": "6604 Rue Saint-Hubert, Montréal", "city": "Montréal", "description": null, "facebook_url": "https:\/\/www.facebook.com\/MTLConserva\/", "twitter_url": null, "instagram_url": null, "website": "https:\/\/epicerie-conserva.business.site\/", "hours": "Heures d'ouverture habituelles", "pickup": "checked", "phone": "(514) 274-4777", "where": "Physique et ecommerce", "Latitude": 45.536933, "Longitude": -73.6048628, "ecommerce": "Opérationnel", "details": "Cuillette sur place (pour emporter)", "type": "Alimentation" }, "geometry": { "type": "Point", "coordinates": [ -73.6048628, 45.536933 ] } },
{ "type": "Feature", "properties": { "id": 1413, "name": "Rose Ross", "address": "3017 Rue Masson, Montréal", "city": "Montréal", "description": "La finesse des aliments est l’épicentre de nos préoccupations. Que du frais, que de la première qualité avec une traçabilité. Tout est entièrement transformé au restaurant, que du fait maison.", "facebook_url": "https:\/\/www.facebook.com\/RestaurantRoseRoss\/", "twitter_url": null, "instagram_url": null, "website": "https:\/\/www.facebook.com\/RestaurantRoseRoss\/", "hours": "Heures d'ouverture réduites", "pickup": "checked", "phone": "(514) 379-1900", "where": "Physique et ecommerce", "Latitude": 45.549197, "Longitude": -73.574218, "ecommerce": "Opérationnel", "details": "Cuillette sur place (pour emporter)", "type": "Bières & Vins" }, "geometry": { "type": "Point", "coordinates": [ -73.574218, 45.549197 ] } },
{ "type": "Feature", "properties": { "id": 1414, "name": "La Culotte à l'Envers", "address": "3162 rue Masson, Montréal", "city": "Montréal", "description": "Vêtements de qualité pour les jeunes enfants.", "facebook_url": "https:\/\/www.facebook.com\/LaCulotteAlEnvers", "twitter_url": null, "instagram_url": null, "website": "https:\/\/www.laculottealenvers.com\/fr\/accueil", "hours": "Temporairement fermé", "pickup": null, "phone": "(514) 564-3174", "where": "Physique et ecommerce", "Latitude": 45.5499268, "Longitude": -73.5737876, "ecommerce": "Opérationnel", "details": "Livraison 2 à 3 jours", "type": "Magasins & Boutiques" }, "geometry": { "type": "Point", "coordinates": [ -73.5737876, 45.549926799999987 ] } },
{ "type": "Feature", "properties": { "id": 1420, "name": "Supermarché PA (du Fort)", "address": "1420 Rue du Fort, Montréal", "city": "Montréal", "description": null, "facebook_url": "https:\/\/www.facebook.com\/supermarchepa", "twitter_url": null, "instagram_url": "https:\/\/www.instagram.com\/supermarchepa\/", "website": "http:\/\/www.supermarchepa.com\/", "hours": "Heures d'ouverture réduites", "pickup": "checked", "phone": "(514) 932-0922", "where": "Physique et ecommerce", "Latitude": 45.4926634, "Longitude": -73.5828165, "ecommerce": "Opérationnel", "details": "Cuillette sur place (pour emporter),Livraison 2 à 3 jours,Livraison 24h à 48h,Livraison locale 6h,Livraison locale 2h", "type": "Alimentation" }, "geometry": { "type": "Point", "coordinates": [ -73.5828165, 45.4926634 ] } },
{ "type": "Feature", "properties": { "id": 1421, "name": "Supermarché PA (du Parc)", "address": "5242 Avenue du Parc, Montréal", "city": "Montréal", "description": null, "facebook_url": "https:\/\/www.facebook.com\/supermarchepa", "twitter_url": null, "instagram_url": "https:\/\/www.instagram.com\/supermarchepa\/", "website": "http:\/\/www.supermarchepa.com\/", "hours": "Heures d'ouverture réduites", "pickup": "checked", "phone": "(514) 273-8782", "where": "Physique et ecommerce", "Latitude": 45.5207767, "Longitude": -73.5989656, "ecommerce": "Opérationnel", "details": "Cuillette sur place (pour emporter),Livraison locale 6h,Livraison locale 2h,Livraison 24h à 48h,Livraison 2 à 3 jours", "type": "Alimentation" }, "geometry": { "type": "Point", "coordinates": [ -73.5989656, 45.5207767 ] } },
{ "type": "Feature", "properties": { "id": 1422, "name": "Supermarché PA Nature", "address": "5029 Avenue du Parc, Montréal", "city": "Montréal", "description": null, "facebook_url": "https:\/\/www.facebook.com\/supermarchepanature", "twitter_url": null, "instagram_url": "https:\/\/www.instagram.com\/supermarchepa\/", "website": "http:\/\/pa-nature.supermarchepa.com\/", "hours": "Heures d'ouverture réduites", "pickup": null, "phone": "(514) 271-8788", "where": "Physique et ecommerce", "Latitude": 45.5190624, "Longitude": -73.5944494, "ecommerce": "Temporairement suspendu", "details": null, "type": "Alimentation" }, "geometry": { "type": "Point", "coordinates": [ -73.5944494, 45.5190624 ] } },
{ "type": "Feature", "properties": { "id": 1423, "name": "Le Cartet Resto Boutique", "address": "106 Rue McGill, Montréal", "city": "Montréal", "description": null, "facebook_url": "https:\/\/www.facebook.com\/Lecartetresto", "twitter_url": null, "instagram_url": "https:\/\/www.instagram.com\/lecartet\/?hl=en", "website": "http:\/\/www.lecartet.ca\/", "hours": "Heures d'ouverture réduites", "pickup": null, "phone": "(514) 871-8887", "where": "Physique et ecommerce", "Latitude": 45.4996463, "Longitude": -73.5555875, "ecommerce": "Opérationnel", "details": null, "type": "Restaurant" }, "geometry": { "type": "Point", "coordinates": [ -73.5555875, 45.499646299999988 ] } },
{ "type": "Feature", "properties": { "id": 1425, "name": "Alexis Le Gourmand", "address": "1407 Rue Saint-Jacques, Montréal", "city": "Montréal", "description": null, "facebook_url": "https:\/\/www.facebook.com\/alexislegourmand\/", "twitter_url": null, "instagram_url": "https:\/\/www.instagram.com\/alexislegourmand\/", "website": "http:\/\/alexislegourmand.com\/", "hours": "Heures d'ouverture réduites", "pickup": null, "phone": "(514) 935-7676", "where": "Physique et ecommerce", "Latitude": 45.4931859, "Longitude": -73.5682704, "ecommerce": "Opérationnel", "details": "Livraison 2 à 3 jours", "type": "Alimentation" }, "geometry": { "type": "Point", "coordinates": [ -73.5682704, 45.4931859 ] } },
{ "type": "Feature", "properties": { "id": 1428, "name": "Chez Robin marché local", "address": "3819 Rue Wellington, Montréal", "city": "Montréal", "description": "Chez Robin Marché Local se distingue par sa mission écologique et sa vision globale. L'approvisionnement sain et éthique de la marchandise permet d'offrir à notre clientèle des aliments sans OGM et des produits locaux de meilleure qualité.", "facebook_url": "facebook.com\/chezrobin\/", "twitter_url": null, "instagram_url": "https:\/\/www.instagram.com\/chezrobinmarchelocal\/", "website": "http:\/\/www.411sante.com\/epicerie-bio\/montreal\/verdun-1\/epicerie-bio-verdun.htm", "hours": "Heures d'ouverture habituelles", "pickup": null, "phone": "(438) 387-7789", "where": "Physique", "Latitude": 45.4664013, "Longitude": -73.5666841, "ecommerce": null, "details": null, "type": "Alimentation" }, "geometry": { "type": "Point", "coordinates": [ -73.5666841, 45.4664013 ] } },
{ "type": "Feature", "properties": { "id": 1434, "name": "Le Cartel Clothing", "address": "160 Rue Saint Viateur East, Montréal", "city": "Montréal", "description": null, "facebook_url": "https:\/\/www.facebook.com\/lecartelclothing\/", "twitter_url": null, "instagram_url": "https:\/\/www.instagram.com\/le_cartel_clothing\/?hl=fr-ca", "website": "https:\/\/www.lecartelclothing.com\/", "hours": "Temporairement fermé", "pickup": null, "phone": null, "where": "Physique et ecommerce", "Latitude": 45.5271053, "Longitude": -73.5978433, "ecommerce": "Opérationnel", "details": "Livraison 3 à 10 jours", "type": "Magasins & Boutiques" }, "geometry": { "type": "Point", "coordinates": [ -73.5978433, 45.5271053 ] } },
{ "type": "Feature", "properties": { "id": 1435, "name": "Crémy", "address": "2202 Avenue du Mont-Royal Est, Montréal", "city": "Montréal", "description": "Pick up à la boutique du mercredi au dimanche, de 10h00 à 17h00\nLivraison à domicile du vendredi au samedi seulement", "facebook_url": "https:\/\/www.facebook.com\/cremypatisserie\/?fref=ts", "twitter_url": null, "instagram_url": "https:\/\/www.instagram.com\/cremy.patisserie\/?hl=fr", "website": "https:\/\/cremypatisserie.com\/", "hours": "Heures d'ouverture réduites", "pickup": "checked", "phone": "(514) 521-9696", "where": "Physique", "Latitude": 45.5369952, "Longitude": -73.5706853, "ecommerce": null, "details": "Cuillette sur place (pour emporter),Livraison locale 6h", "type": "Boulangerie & pâtisserie" }, "geometry": { "type": "Point", "coordinates": [ -73.5706853, 45.5369952 ] } },
{ "type": "Feature", "properties": { "id": 1436, "name": "Léché Desserts", "address": "640 Rue de Courcelle, Montréal", "city": "Montréal", "description": null, "facebook_url": "https:\/\/www.facebook.com\/lechedesserts", "twitter_url": null, "instagram_url": "https:\/\/www.instagram.com\/lechedesserts\/", "website": "http:\/\/www.lechedesserts.com\/", "hours": "Heures d'ouverture réduites", "pickup": null, "phone": "(514) 303-2200", "where": "Physique", "Latitude": 45.4744479, "Longitude": -73.5923843, "ecommerce": null, "details": "Livraison locale 2h", "type": "Magasins & Boutiques" }, "geometry": { "type": "Point", "coordinates": [ -73.5923843, 45.4744479 ] } },
{ "type": "Feature", "properties": { "id": 1437, "name": "Tejano BBQ (de Courcelles)", "address": "511 Rue de Courcelle, Montréal", "city": "Montréal", "description": null, "facebook_url": "https:\/\/www.facebook.com\/tejanobbqburrito\/?fref=ts", "twitter_url": null, "instagram_url": "https:\/\/www.instagram.com\/tejanoburrito\/", "website": "http:\/\/www.tejanobbqburrito.com\/", "hours": "Heures d'ouverture habituelles", "pickup": null, "phone": "(514) 303-3500", "where": "Physique", "Latitude": 45.472978, "Longitude": -73.5892229, "ecommerce": null, "details": null, "type": "Restaurant" }, "geometry": { "type": "Point", "coordinates": [ -73.5892229, 45.472978 ] } },
{ "type": "Feature", "properties": { "id": 1444, "name": "Plantzy", "address": "5445 Avenue de Gaspé, Montréal", "city": "Montréal", "description": null, "facebook_url": "https:\/\/www.facebook.com\/plantes.plantzy\/", "twitter_url": null, "instagram_url": "https:\/\/www.instagram.com\/plantzy\/", "website": "http:\/\/www.plantzy.com\/", "hours": "Temporairement fermé", "pickup": null, "phone": "(514) 250-5381", "where": "Physique et ecommerce", "Latitude": 45.526957, "Longitude": -73.5958511, "ecommerce": "Opérationnel", "details": "Livraison 24h à 48h", "type": "Magasins & Boutiques" }, "geometry": { "type": "Point", "coordinates": [ -73.5958511, 45.526957 ] } },
{ "type": "Feature", "properties": { "id": 1445, "name": "Vertuose", "address": "5409 Boulevard Saint-Laurent, Montréal", "city": "Montréal", "description": null, "facebook_url": "https:\/\/www.facebook.com\/vertuosemontreal\/", "twitter_url": null, "instagram_url": "https:\/\/www.instagram.com\/vertuosemontreal\/", "website": "https:\/\/vertuose.com\/", "hours": "Heures d'ouverture habituelles", "pickup": null, "phone": "(514) 276-4048", "where": "Physique et ecommerce", "Latitude": 45.5249784, "Longitude": -73.5970529, "ecommerce": "Opérationnel", "details": "Livraison 2 à 3 jours", "type": "Magasins & Boutiques" }, "geometry": { "type": "Point", "coordinates": [ -73.5970529, 45.5249784 ] } },
{ "type": "Feature", "properties": { "id": 1449, "name": "Frank And Oak", "address": "1420 Rue Stanley, Montréal", "city": "Montréal", "description": null, "facebook_url": "https:\/\/www.facebook.com\/frankandoak", "twitter_url": null, "instagram_url": "https:\/\/www.instagram.com\/frankandoak", "website": "https:\/\/www.frankandoak.com\/", "hours": "Temporairement fermé", "pickup": null, "phone": "(514) 228-3761", "where": "Physique et ecommerce", "Latitude": 45.4999189, "Longitude": -73.5748458, "ecommerce": "Opérationnel", "details": "Livraison 3 à 10 jours", "type": "Café & Thé" }, "geometry": { "type": "Point", "coordinates": [ -73.5748458, 45.4999189 ] } },
{ "type": "Feature", "properties": { "id": 1451, "name": "Patrice Pâtissier", "address": "2360 Rue Notre-Dame Ouest, Montréal", "city": "Montréal", "description": null, "facebook_url": "https:\/\/www.facebook.com\/PatricePatisserie", "twitter_url": "https:\/\/twitter.com\/patriceboutique", "instagram_url": "https:\/\/www.instagram.com\/patrice_demers\/", "website": "http:\/\/patricepatissier.ca\/", "hours": "Temporairement fermé", "pickup": "checked", "phone": "(514) 439-5434", "where": "Physique et ecommerce", "Latitude": 45.4841737, "Longitude": -73.5731392, "ecommerce": "Opérationnel", "details": "Cuillette sur place (pour emporter)", "type": "Boulangerie & pâtisserie" }, "geometry": { "type": "Point", "coordinates": [ -73.5731392, 45.4841737 ] } },
{ "type": "Feature", "properties": { "id": 1453, "name": "57Végane", "address": "107-5475 avenue Royalmount, Mont-Royal", "city": "Mont-Royal", "description": "57Végane a développé une gamme de produits végétaliens prêts-à-manger. Sandwichs, desserts et produits congelés, nos produits se retrouvent dans plusieurs épiceries et sur notre site web. La livraison est gratuite pour les commandes en ligne.", "facebook_url": "https:\/\/www.facebook.com\/57vegane", "twitter_url": null, "instagram_url": "https:\/\/www.instagram.com\/57vegane", "website": "www.57vegane.com", "hours": "Heures d'ouverture réduites", "pickup": null, "phone": "(438) 871-8180", "where": "Physique et ecommerce", "Latitude": 45.4955617, "Longitude": -73.6648229, "ecommerce": "Opérationnel", "details": "Livraison 2 à 3 jours", "type": null }, "geometry": { "type": "Point", "coordinates": [ -73.6648229, 45.4955617 ] } },
{ "type": "Feature", "properties": { "id": 1467, "name": "AUTOS-SUGGESTIONS", "address": "638 Sauvé est, Montreal", "city": "Montreal", "description": "Boutique spécialisée dans la vente de voitures miniatures de collection et de modèles à coller.", "facebook_url": "https:\/\/fr-ca.facebook.com\/autos.suggestions\/", "twitter_url": "n\/a", "instagram_url": "n\/a", "website": "autos-suggestions.com", "hours": "Heures d'ouverture habituelles", "pickup": "checked", "phone": "(514) 334-6896", "where": "Physique et ecommerce", "Latitude": 45.5522866, "Longitude": -73.6553215, "ecommerce": "Opérationnel", "details": "Cuillette sur place (pour emporter),Livraison 2 à 3 jours", "type": "Restaurant" }, "geometry": { "type": "Point", "coordinates": [ -73.6553215, 45.5522866 ] } },
{ "type": "Feature", "properties": { "id": 1469, "name": "Pâtisserie A Les Sens Ciel !", "address": "703-5333 Avenue Casgrain, Montréal", "city": "Montréal", "description": "A les Sens Ciel est une pâtisserie fine française artisanale raffinée, 100% fraîche qui crée et réalise avec des produits locaux transformés entièrement par ses soins.", "facebook_url": "https:\/\/www.facebook.com\/PatisserieALesSensCiel", "twitter_url": null, "instagram_url": "https:\/\/www.instagram.com\/a_les_sens_ciel", "website": "http:\/\/www.alessensciel.com", "hours": "Heures d'ouverture réduites", "pickup": null, "phone": "(438) 527-9427", "where": "Physique et ecommerce", "Latitude": 45.5258596, "Longitude": -73.595115, "ecommerce": "Opérationnel", "details": "Livraison 2 à 3 jours", "type": "Boulangerie & pâtisserie" }, "geometry": { "type": "Point", "coordinates": [ -73.595115, 45.5258596 ] } },
{ "type": "Feature", "properties": { "id": 1522, "name": "A la Lainerie Lépine", "address": "3884 Rue Jean Talon, Montréal", "city": "Montréal", "description": "Boutique de fibre de toute source", "facebook_url": null, "twitter_url": null, "instagram_url": null, "website": "Lainerie.com", "hours": "Temporairement fermé", "pickup": null, "phone": "(514) 721-2440", "where": "Physique et ecommerce", "Latitude": 45.5649527, "Longitude": -73.5928414, "ecommerce": "Opérationnel", "details": "Livraison 2 à 3 jours", "type": "Magasins & Boutiques" }, "geometry": { "type": "Point", "coordinates": [ -73.5928414, 45.5649527 ] } },
{ "type": "Feature", "properties": { "id": 1560, "name": "La Petite Boulangerie", "address": "1412 Rue Fleury Est, Montréal", "city": "Montréal", "description": null, "facebook_url": "https:\/\/www.facebook.com\/lapetiteboulangeriefleury\/", "twitter_url": null, "instagram_url": null, "website": "http:\/\/www.lapetiteboulangerie.ca\/", "hours": "Heures d'ouverture prolongées", "pickup": null, "phone": "(514) 384-5180", "where": "Physique", "Latitude": 45.5614398, "Longitude": -73.6571971, "ecommerce": null, "details": "Livraison locale 2h", "type": "Boulangerie & pâtisserie" }, "geometry": { "type": "Point", "coordinates": [ -73.6571971, 45.5614398 ] } },
{ "type": "Feature", "properties": { "id": 2405, "name": "Fromagerie Bel Canada", "address": "500, place d'Armes, bureau 2095, Montréal", "city": "Montréal", "description": null, "facebook_url": "https:\/\/www.facebook.com\/Fromageries-Bel-Canada-Inc-302305273612519\/", "twitter_url": null, "instagram_url": null, "website": null, "hours": null, "pickup": null, "phone": null, "where": null, "Latitude": 45.5044461, "Longitude": -73.5576923, "ecommerce": null, "details": "Cueillette sans contact", "type": "Alimentation" }, "geometry": { "type": "Point", "coordinates": [ -73.557692300000014, 45.5044461 ] } },
{ "type": "Feature", "properties": { "id": 2406, "name": "Fromagerie Hamel", "address": "220, rue Jean-Talon Est, Montréal", "city": "Montréal", "description": null, "facebook_url": "https:\/\/www.facebook.com\/fromageriehamel", "twitter_url": null, "instagram_url": null, "website": "https:\/\/www.fromageriehamel.com\/", "hours": null, "pickup": null, "phone": null, "where": null, "Latitude": 45.5362867, "Longitude": -73.6160192, "ecommerce": null, "details": "Cueillette sans contact", "type": "Alimentation" }, "geometry": { "type": "Point", "coordinates": [ -73.6160192, 45.5362867 ] } },
{ "type": "Feature", "properties": { "id": 2407, "name": "Fromages biobio (affineur)", "address": "154, avenue Laurier Ouest, bureau 200, Montréal", "city": "Montréal", "description": null, "facebook_url": "https:\/\/www.facebook.com\/biobiocanada", "twitter_url": null, "instagram_url": null, "website": "http:\/\/www.biobio.ca\/", "hours": null, "pickup": null, "phone": null, "where": null, "Latitude": 45.5211075, "Longitude": -73.5941146, "ecommerce": null, "details": "Cueillette sans contact", "type": "Alimentation" }, "geometry": { "type": "Point", "coordinates": [ -73.5941146, 45.5211075 ] } },
{ "type": "Feature", "properties": { "id": 2408, "name": "Fromages Saputo - Montréal", "address": "2365 Chemin de la Côte-de-Liesse, Montréal", "city": "Montréal", "description": null, "facebook_url": null, "twitter_url": null, "instagram_url": null, "website": null, "hours": null, "pickup": null, "phone": null, "where": null, "Latitude": 45.5216908, "Longitude": -73.655501, "ecommerce": null, "details": "Cueillette sans contact", "type": "Alimentation" }, "geometry": { "type": "Point", "coordinates": [ -73.655501, 45.521690799999988 ] } },
{ "type": "Feature", "properties": { "id": 2410, "name": "Test Vortex", "address": "1608 Rue Prieur Est, Montréal", "city": "Montréal", "description": null, "facebook_url": null, "twitter_url": null, "instagram_url": null, "website": null, "hours": null, "pickup": null, "phone": null, "where": null, "Latitude": 45.565074, "Longitude": -73.658377, "ecommerce": null, "details": "Cueillette sans contact", "type": "Alimentation" }, "geometry": { "type": "Point", "coordinates": [ -73.658377, 45.565074 ] } }
]
}
